{
"type": "FeatureCollection",
"features": [
{ "type": "Feature", "properties": { "Name": "Basisschool St-Jan Berchmanscollege", "Lat": 50.841114, "Long": 4.345791, "Distance": 143.0, "Category": "Elementary School", "Company": "Getyoo", "City": "Brussels" }, "geometry": { "type": "Point", "coordinates": [ 4.345791, 50.841114 ] } },
{ "type": "Feature", "properties": { "Name": "Vrije Basisschool - Sint-Joris", "Lat": 50.838791, "Long": 4.342871, "Distance": 255.0, "Category": "Elementary School", "Company": "Getyoo", "City": "Brussels" }, "geometry": { "type": "Point", "coordinates": [ 4.342871, 50.838791 ] } },
{ "type": "Feature", "properties": { "Name": "Ecole d apllication charles buls", "Lat": 50.838187, "Long": 4.342025, "Distance": 369.0, "Category": "Elementary School", "Company": "Getyoo", "City": "Brussels" }, "geometry": { "type": "Point", "coordinates": [ 4.342025, 50.838187 ] } },
{ "type": "Feature", "properties": { "Name": "Sint-Joris Basisschool", "Lat": 50.84442, "Long": 4.348585, "Distance": 505.0, "Category": "Elementary School", "Company": "Getyoo", "City": "Brussels" }, "geometry": { "type": "Point", "coordinates": [ 4.348585, 50.84442 ] } },
{ "type": "Feature", "properties": { "Name": "Bsgo De Bron", "Lat": 50.834831, "Long": 4.340237, "Distance": 719.0, "Category": "Elementary School", "Company": "Getyoo", "City": "Brussels" }, "geometry": { "type": "Point", "coordinates": [ 4.340237, 50.834831 ] } },
{ "type": "Feature", "properties": { "Name": "ecole communale Léon Lepage", "Lat": 50.846606, "Long": 4.345592, "Distance": 740.0, "Category": "Elementary School", "Company": "Getyoo", "City": "Brussels" }, "geometry": { "type": "Point", "coordinates": [ 4.345592, 50.846606 ] } },
{ "type": "Feature", "properties": { "Name": "Ecole Primaire Des Six Jetons", "Lat": 50.847582, "Long": 4.343905, "Distance": 888.0, "Category": "Elementary School", "Company": "Getyoo", "City": "Brussels" }, "geometry": { "type": "Point", "coordinates": [ 4.343905, 50.847582 ] } },
{ "type": "Feature", "properties": { "Name": "École Ulenspiegel", "Lat": 50.832962, "Long": 4.339443, "Distance": 921.0, "Category": "Elementary School", "Company": "Getyoo", "City": "Brussels" }, "geometry": { "type": "Point", "coordinates": [ 4.339443, 50.832962 ] } },
{ "type": "Feature", "properties": { "Name": "Gbs Kameleon", "Lat": 50.845345, "Long": 4.333929, "Distance": 1056.0, "Category": "Elementary School", "Company": "Getyoo", "City": "Brussels" }, "geometry": { "type": "Point", "coordinates": [ 4.333929, 50.845345 ] } },
{ "type": "Feature", "properties": { "Name": "GBS Kameleon", "Lat": 50.842481, "Long": 4.33066, "Distance": 1140.0, "Category": "Elementary School", "Company": "Getyoo", "City": "Brussels" }, "geometry": { "type": "Point", "coordinates": [ 4.33066, 50.842481 ] } },
{ "type": "Feature", "properties": { "Name": "Bruxelles, Ecole fondamentale Saint-Thomas", "Lat": 50.849935, "Long": 4.341433, "Distance": 1173.0, "Category": "Elementary School", "Company": "Getyoo", "City": "Brussels" }, "geometry": { "type": "Point", "coordinates": [ 4.341433, 50.849935 ] } },
{ "type": "Feature", "properties": { "Name": "Basisschool De Bron", "Lat": 50.830626, "Long": 4.355306, "Distance": 1196.0, "Category": "Elementary School", "Company": "Getyoo", "City": "Brussels" }, "geometry": { "type": "Point", "coordinates": [ 4.355306, 50.830626 ] } },
{ "type": "Feature", "properties": { "Name": "Ecole Nouvelle Primaire", "Lat": 50.828579, "Long": 4.346889, "Distance": 1266.0, "Category": "Elementary School", "Company": "Getyoo", "City": "Brussels" }, "geometry": { "type": "Point", "coordinates": [ 4.346889, 50.828579 ] } },
{ "type": "Feature", "properties": { "Name": "Basisschool Sint-Gillis", "Lat": 50.82872, "Long": 4.338689, "Distance": 1362.0, "Category": "Elementary School", "Company": "Getyoo", "City": "Brussels" }, "geometry": { "type": "Point", "coordinates": [ 4.338689, 50.82872 ] } },
{ "type": "Feature", "properties": { "Name": "École Peter Pan", "Lat": 50.827347, "Long": 4.346613, "Distance": 1405.0, "Category": "Elementary School", "Company": "Getyoo", "City": "Brussels" }, "geometry": { "type": "Point", "coordinates": [ 4.346613, 50.827347 ] } },
{ "type": "Feature", "properties": { "Name": "ANDERLECHT, Ecole primaire et maternelle Saint François Xavier", "Lat": 50.836077, "Long": 4.327271, "Distance": 1415.0, "Category": "Elementary School", "Company": "Getyoo", "City": "Brussels" }, "geometry": { "type": "Point", "coordinates": [ 4.327271, 50.836077 ] } },
{ "type": "Feature", "properties": { "Name": "Ecole Saint François Xavier", "Lat": 50.836305, "Long": 4.327079, "Distance": 1434.0, "Category": "Elementary School", "Company": "Getyoo", "City": "Brussels" }, "geometry": { "type": "Point", "coordinates": [ 4.327079, 50.836305 ] } },
{ "type": "Feature", "properties": { "Name": "Ecole 1-2", "Lat": 50.826759, "Long": 4.341763, "Distance": 1499.0, "Category": "Elementary School", "Company": "Getyoo", "City": "Brussels" }, "geometry": { "type": "Point", "coordinates": [ 4.341763, 50.826759 ] } },
{ "type": "Feature", "properties": { "Name": "ANDERLECHT, Lagere-en Kleuterschool", "Lat": 50.835733, "Long": 4.325928, "Distance": 1516.0, "Category": "Elementary School", "Company": "Getyoo", "City": "Brussels" }, "geometry": { "type": "Point", "coordinates": [ 4.325928, 50.835733 ] } },
{ "type": "Feature", "properties": { "Name": "Mabo Basisschool", "Lat": 50.853475, "Long": 4.343789, "Distance": 1516.0, "Category": "Elementary School", "Company": "Getyoo", "City": "Brussels" }, "geometry": { "type": "Point", "coordinates": [ 4.343789, 50.853475 ] } },
{ "type": "Feature", "properties": { "Name": "Ixelles, Jardin des Ecoliers", "Lat": 50.831134, "Long": 4.365337, "Distance": 1595.0, "Category": "Elementary School", "Company": "Getyoo", "City": "Brussels" }, "geometry": { "type": "Point", "coordinates": [ 4.365337, 50.831134 ] } },
{ "type": "Feature", "properties": { "Name": "Etoile du Berger", "Lat": 50.831037, "Long": 4.365015, "Distance": 1612.0, "Category": "Elementary School", "Company": "Getyoo", "City": "Brussels" }, "geometry": { "type": "Point", "coordinates": [ 4.365015, 50.831037 ] } },
{ "type": "Feature", "properties": { "Name": "École P9-10", "Lat": 50.835902, "Long": 4.323897, "Distance": 1642.0, "Category": "Elementary School", "Company": "Getyoo", "City": "Brussels" }, "geometry": { "type": "Point", "coordinates": [ 4.323897, 50.835902 ] } },
{ "type": "Feature", "properties": { "Name": "Ecole fondamentale du Canal", "Lat": 50.854916, "Long": 4.349542, "Distance": 1663.0, "Category": "Elementary School", "Company": "Getyoo", "City": "Brussels" }, "geometry": { "type": "Point", "coordinates": [ 4.349542, 50.854916 ] } },
{ "type": "Feature", "properties": { "Name": "Imelda Basisschool", "Lat": 50.849144, "Long": 4.326927, "Distance": 1717.0, "Category": "Elementary School", "Company": "Getyoo", "City": "Brussels" }, "geometry": { "type": "Point", "coordinates": [ 4.326927, 50.849144 ] } },
{ "type": "Feature", "properties": { "Name": "Basisschool De Klimpaal - Freinetschool", "Lat": 50.853387, "Long": 4.334075, "Distance": 1718.0, "Category": "Elementary School", "Company": "Getyoo", "City": "Brussels" }, "geometry": { "type": "Point", "coordinates": [ 4.334075, 50.853387 ] } },
{ "type": "Feature", "properties": { "Name": "École Primaire Saint-Antoine", "Lat": 50.828723, "Long": 4.328314, "Distance": 1771.0, "Category": "Elementary School", "Company": "Getyoo", "City": "Brussels" }, "geometry": { "type": "Point", "coordinates": [ 4.328314, 50.828723 ] } },
{ "type": "Feature", "properties": { "Name": "De Puzzel", "Lat": 50.827075, "Long": 4.331082, "Distance": 1783.0, "Category": "Elementary School", "Company": "Getyoo", "City": "Brussels" }, "geometry": { "type": "Point", "coordinates": [ 4.331082, 50.827075 ] } },
{ "type": "Feature", "properties": { "Name": "Institut Saint-Boniface-Parnasse", "Lat": 50.833924, "Long": 4.370963, "Distance": 1786.0, "Category": "Elementary School", "Company": "Getyoo", "City": "Brussels" }, "geometry": { "type": "Point", "coordinates": [ 4.370963, 50.833924 ] } },
{ "type": "Feature", "properties": { "Name": "Ecole Primaire Et Maternelle N° 2 Et 14", "Lat": 50.833203, "Long": 4.370913, "Distance": 1872.0, "Category": "Elementary School", "Company": "Getyoo", "City": "Brussels" }, "geometry": { "type": "Point", "coordinates": [ 4.370913, 50.833203 ] } },
{ "type": "Feature", "properties": { "Name": "Sint-Jans-Molenbeek, Basisschool Vier Winden", "Lat": 50.85593, "Long": 4.33623, "Distance": 1907.0, "Category": "Elementary School", "Company": "Getyoo", "City": "Brussels" }, "geometry": { "type": "Point", "coordinates": [ 4.33623, 50.85593 ] } },
{ "type": "Feature", "properties": { "Name": "GBS Windroos", "Lat": 50.854482, "Long": 4.330723, "Distance": 1952.0, "Category": "Elementary School", "Company": "Getyoo", "City": "Brussels" }, "geometry": { "type": "Point", "coordinates": [ 4.330723, 50.854482 ] } },
{ "type": "Feature", "properties": { "Name": "Ket & Co", "Lat": 50.852558, "Long": 4.326531, "Distance": 1972.0, "Category": "Elementary School", "Company": "Getyoo", "City": "Brussels" }, "geometry": { "type": "Point", "coordinates": [ 4.326531, 50.852558 ] } },
{ "type": "Feature", "properties": { "Name": "Saint Boniface", "Lat": 50.835856, "Long": 4.374962, "Distance": 2050.0, "Category": "Elementary School", "Company": "Getyoo", "City": "Brussels" }, "geometry": { "type": "Point", "coordinates": [ 4.374962, 50.835856 ] } },
{ "type": "Feature", "properties": { "Name": "Groupe scolaire de Ten Bosch", "Lat": 50.822471, "Long": 4.361135, "Distance": 2200.0, "Category": "Elementary School", "Company": "Getyoo", "City": "Brussels" }, "geometry": { "type": "Point", "coordinates": [ 4.361135, 50.822471 ] } },
{ "type": "Feature", "properties": { "Name": "Basisschool Dertien", "Lat": 50.83658, "Long": 4.31473, "Distance": 2259.0, "Category": "Elementary School", "Company": "Getyoo", "City": "Brussels" }, "geometry": { "type": "Point", "coordinates": [ 4.31473, 50.83658 ] } },
{ "type": "Feature", "properties": { "Name": "Ecole Saint François", "Lat": 50.856874, "Long": 4.364743, "Distance": 2261.0, "Category": "Elementary School", "Company": "Getyoo", "City": "Brussels" }, "geometry": { "type": "Point", "coordinates": [ 4.364743, 50.856874 ] } },
{ "type": "Feature", "properties": { "Name": "Ecole Communale Armand Swartenbroeks Primaire", "Lat": 50.858684, "Long": 4.330851, "Distance": 2350.0, "Category": "Elementary School", "Company": "Getyoo", "City": "Brussels" }, "geometry": { "type": "Point", "coordinates": [ 4.330851, 50.858684 ] } },
{ "type": "Feature", "properties": { "Name": "Ecole Fondamentale de l'Héliport", "Lat": 50.859712, "Long": 4.35384, "Distance": 2351.0, "Category": "Elementary School", "Company": "Getyoo", "City": "Brussels" }, "geometry": { "type": "Point", "coordinates": [ 4.35384, 50.859712 ] } },
{ "type": "Feature", "properties": { "Name": "Gbs De Knipoog", "Lat": 50.84978, "Long": 4.316714, "Distance": 2364.0, "Category": "Elementary School", "Company": "Getyoo", "City": "Brussels" }, "geometry": { "type": "Point", "coordinates": [ 4.316714, 50.84978 ] } },
{ "type": "Feature", "properties": { "Name": "Les Marronniers", "Lat": 50.837174, "Long": 4.312848, "Distance": 2377.0, "Category": "Elementary School", "Company": "Getyoo", "City": "Brussels" }, "geometry": { "type": "Point", "coordinates": [ 4.312848, 50.837174 ] } },
{ "type": "Feature", "properties": { "Name": "Sint Joost Aan Zee", "Lat": 50.85517, "Long": 4.371421, "Distance": 2425.0, "Category": "Elementary School", "Company": "Getyoo", "City": "Brussels" }, "geometry": { "type": "Point", "coordinates": [ 4.371421, 50.85517 ] } },
{ "type": "Feature", "properties": { "Name": "Salle De Sport HF", "Lat": 50.851476, "Long": 4.376125, "Distance": 2442.0, "Category": "Elementary School", "Company": "Getyoo", "City": "Brussels" }, "geometry": { "type": "Point", "coordinates": [ 4.376125, 50.851476 ] } },
{ "type": "Feature", "properties": { "Name": "Salle De Psychomot", "Lat": 50.85168, "Long": 4.376313, "Distance": 2451.0, "Category": "Elementary School", "Company": "Getyoo", "City": "Brussels" }, "geometry": { "type": "Point", "coordinates": [ 4.376313, 50.85168 ] } },
{ "type": "Feature", "properties": { "Name": "Hall De L Ecole", "Lat": 50.85168, "Long": 4.376313, "Distance": 2451.0, "Category": "Elementary School", "Company": "Getyoo", "City": "Brussels" }, "geometry": { "type": "Point", "coordinates": [ 4.376313, 50.85168 ] } },
{ "type": "Feature", "properties": { "Name": "European School Berkendael", "Lat": 50.817577, "Long": 4.348627, "Distance": 2499.0, "Category": "Elementary School", "Company": "Getyoo", "City": "Brussels" }, "geometry": { "type": "Point", "coordinates": [ 4.348627, 50.817577 ] } },
{ "type": "Feature", "properties": { "Name": "La flute enchantée", "Lat": 50.840299, "Long": 4.350827, "Distance": 3699.0, "Category": "Elementary School", "Company": "Getyoo", "City": "Brussels" }, "geometry": { "type": "Point", "coordinates": [ 4.350827, 50.840299 ] } },
{ "type": "Feature", "properties": { "Name": "Bessie Carmichael Elementary School", "Lat": 37.776344, "Long": -122.406468, "Distance": 501.0, "Category": "Elementary School", "Company": "Samasource", "City": "San Francisco" }, "geometry": { "type": "Point", "coordinates": [ -122.406468, 37.776344 ] } },
{ "type": "Feature", "properties": { "Name": "Notre Dame Des Victoires School", "Lat": 37.791185, "Long": -122.406339, "Distance": 1410.0, "Category": "Elementary School", "Company": "Samasource", "City": "San Francisco" }, "geometry": { "type": "Point", "coordinates": [ -122.406339, 37.791185 ] } },
{ "type": "Feature", "properties": { "Name": "Nam Kue School", "Lat": 37.793251, "Long": -122.405386, "Distance": 1610.0, "Category": "Elementary School", "Company": "Samasource", "City": "San Francisco" }, "geometry": { "type": "Point", "coordinates": [ -122.405386, 37.793251 ] } },
{ "type": "Feature", "properties": { "Name": "Live Oak School", "Lat": 37.763509, "Long": -122.399117, "Distance": 1737.0, "Category": "Elementary School", "Company": "Samasource", "City": "San Francisco" }, "geometry": { "type": "Point", "coordinates": [ -122.399117, 37.763509 ] } },
{ "type": "Feature", "properties": { "Name": "Chinese Education Center Elementary School", "Lat": 37.794856, "Long": -122.404046, "Distance": 1764.0, "Category": "Elementary School", "Company": "Samasource", "City": "San Francisco" }, "geometry": { "type": "Point", "coordinates": [ -122.404046, 37.794856 ] } },
{ "type": "Feature", "properties": { "Name": "Edwin and Anita Lee Newcomer School", "Lat": 37.794818, "Long": -122.404116, "Distance": 1769.0, "Category": "Elementary School", "Company": "Samasource", "City": "San Francisco" }, "geometry": { "type": "Point", "coordinates": [ -122.404116, 37.794818 ] } },
{ "type": "Feature", "properties": { "Name": "Gordon J Lau Elementary School", "Lat": 37.794355, "Long": -122.408892, "Distance": 1788.0, "Category": "Elementary School", "Company": "Samasource", "City": "San Francisco" }, "geometry": { "type": "Point", "coordinates": [ -122.408892, 37.794355 ] } },
{ "type": "Feature", "properties": { "Name": "Chinese American International School", "Lat": 37.775313, "Long": -122.422104, "Distance": 1830.0, "Category": "Elementary School", "Company": "Samasource", "City": "San Francisco" }, "geometry": { "type": "Point", "coordinates": [ -122.422104, 37.775313 ] } },
{ "type": "Feature", "properties": { "Name": "Cathedral School For Boys", "Lat": 37.792244, "Long": -122.413858, "Distance": 1831.0, "Category": "Elementary School", "Company": "Samasource", "City": "San Francisco" }, "geometry": { "type": "Point", "coordinates": [ -122.413858, 37.792244 ] } },
{ "type": "Feature", "properties": { "Name": "John Swett Alternative Elementary School", "Lat": 37.780381, "Long": -122.422906, "Distance": 1861.0, "Category": "Elementary School", "Company": "Samasource", "City": "San Francisco" }, "geometry": { "type": "Point", "coordinates": [ -122.422906, 37.780381 ] } },
{ "type": "Feature", "properties": { "Name": "Redding Elementary School", "Lat": 37.78957, "Long": -122.419363, "Distance": 1921.0, "Category": "Elementary School", "Company": "Samasource", "City": "San Francisco" }, "geometry": { "type": "Point", "coordinates": [ -122.419363, 37.78957 ] } },
{ "type": "Feature", "properties": { "Name": "Marshall Elementary School", "Lat": 37.766468, "Long": -122.419001, "Distance": 2055.0, "Category": "Elementary School", "Company": "Samasource", "City": "San Francisco" }, "geometry": { "type": "Point", "coordinates": [ -122.419001, 37.766468 ] } },
{ "type": "Feature", "properties": { "Name": "Daniel Webster Elementary SCHL", "Lat": 37.760587, "Long": -122.395863, "Distance": 2094.0, "Category": "Elementary School", "Company": "Samasource", "City": "San Francisco" }, "geometry": { "type": "Point", "coordinates": [ -122.395863, 37.760587 ] } },
{ "type": "Feature", "properties": { "Name": "John Yehall Chin Elementary School", "Lat": 37.798585, "Long": -122.403119, "Distance": 2161.0, "Category": "Elementary School", "Company": "Samasource", "City": "San Francisco" }, "geometry": { "type": "Point", "coordinates": [ -122.403119, 37.798585 ] } },
{ "type": "Feature", "properties": { "Name": "Jean Parker Elementary School", "Lat": 37.797687, "Long": -122.411024, "Distance": 2225.0, "Category": "Elementary School", "Company": "Samasource", "City": "San Francisco" }, "geometry": { "type": "Point", "coordinates": [ -122.411024, 37.797687 ] } },
{ "type": "Feature", "properties": { "Name": "Spring Valley Elementary School", "Lat": 37.794047, "Long": -122.418911, "Distance": 2279.0, "Category": "Elementary School", "Company": "Samasource", "City": "San Francisco" }, "geometry": { "type": "Point", "coordinates": [ -122.418911, 37.794047 ] } },
{ "type": "Feature", "properties": { "Name": "John Muir Elementary School", "Lat": 37.773721, "Long": -122.428819, "Distance": 2407.0, "Category": "Elementary School", "Company": "Samasource", "City": "San Francisco" }, "geometry": { "type": "Point", "coordinates": [ -122.428819, 37.773721 ] } },
{ "type": "Feature", "properties": { "Name": "Bessie Carmichael Elementary", "Lat": 37.780661, "Long": -122.400414, "Distance": 222.0, "Category": "Elementary School", "Company": "Samasource", "City": "San Francisco" }, "geometry": { "type": "Point", "coordinates": [ -122.400414, 37.780661 ] } },
{ "type": "Feature", "properties": { "Name": "San Francisco Unified School District", "Lat": 37.780634, "Long": -122.40034, "Distance": 223.0, "Category": "Elementary School", "Company": "Samasource", "City": "San Francisco" }, "geometry": { "type": "Point", "coordinates": [ -122.40034, 37.780634 ] } },
{ "type": "Feature", "properties": { "Name": "Bessie Carmichael Elementary School", "Lat": 37.777054, "Long": -122.406151, "Distance": 438.0, "Category": "Elementary School", "Company": "Samasource", "City": "San Francisco" }, "geometry": { "type": "Point", "coordinates": [ -122.406151, 37.777054 ] } },
{ "type": "Feature", "properties": { "Name": "Bessie Carmichael Pre K", "Lat": 37.77662, "Long": -122.406699, "Distance": 504.0, "Category": "Elementary School", "Company": "Samasource", "City": "San Francisco" }, "geometry": { "type": "Point", "coordinates": [ -122.406699, 37.77662 ] } },
{ "type": "Feature", "properties": { "Name": "San Francisco Unified School District", "Lat": 37.775948, "Long": -122.406086, "Distance": 505.0, "Category": "Elementary School", "Company": "Samasource", "City": "San Francisco" }, "geometry": { "type": "Point", "coordinates": [ -122.406086, 37.775948 ] } },
{ "type": "Feature", "properties": { "Name": "Bessie Carmichael Pre-K School", "Lat": 37.776371, "Long": -122.406541, "Distance": 507.0, "Category": "Elementary School", "Company": "Samasource", "City": "San Francisco" }, "geometry": { "type": "Point", "coordinates": [ -122.406541, 37.776371 ] } },
{ "type": "Feature", "properties": { "Name": "Carmichael (Bessie)/Fec", "Lat": 37.776019, "Long": -122.406448, "Distance": 524.0, "Category": "Elementary School", "Company": "Samasource", "City": "San Francisco" }, "geometry": { "type": "Point", "coordinates": [ -122.406448, 37.776019 ] } },
{ "type": "Feature", "properties": { "Name": "Golden Gate Restaurant Association Scholarship Fun", "Lat": 37.787641, "Long": -122.403979, "Distance": 980.0, "Category": "Elementary School", "Company": "Samasource", "City": "San Francisco" }, "geometry": { "type": "Point", "coordinates": [ -122.403979, 37.787641 ] } },
{ "type": "Feature", "properties": { "Name": "The Buddy System", "Lat": 37.787934, "Long": -122.405287, "Distance": 1039.0, "Category": "Elementary School", "Company": "Samasource", "City": "San Francisco" }, "geometry": { "type": "Point", "coordinates": [ -122.405287, 37.787934 ] } },
{ "type": "Feature", "properties": { "Name": "Year On", "Lat": 37.787611, "Long": -122.396665, "Distance": 1058.0, "Category": "Elementary School", "Company": "Samasource", "City": "San Francisco" }, "geometry": { "type": "Point", "coordinates": [ -122.396665, 37.787611 ] } },
{ "type": "Feature", "properties": { "Name": "De Marillac Middle School", "Lat": 37.781697, "Long": -122.413378, "Distance": 1060.0, "Category": "Elementary School", "Company": "Samasource", "City": "San Francisco" }, "geometry": { "type": "Point", "coordinates": [ -122.413378, 37.781697 ] } },
{ "type": "Feature", "properties": { "Name": "Altschool", "Lat": 37.771751, "Long": -122.409709, "Distance": 1062.0, "Category": "Elementary School", "Company": "Samasource", "City": "San Francisco" }, "geometry": { "type": "Point", "coordinates": [ -122.409709, 37.771751 ] } },
{ "type": "Feature", "properties": { "Name": "San Ramon Valley Unified School.dst", "Lat": 37.789453, "Long": -122.401649, "Distance": 1162.0, "Category": "Elementary School", "Company": "Samasource", "City": "San Francisco" }, "geometry": { "type": "Point", "coordinates": [ -122.401649, 37.789453 ] } },
{ "type": "Feature", "properties": { "Name": "Market Street School", "Lat": 37.778427, "Long": -122.415551, "Distance": 1209.0, "Category": "Elementary School", "Company": "Samasource", "City": "San Francisco" }, "geometry": { "type": "Point", "coordinates": [ -122.415551, 37.778427 ] } },
{ "type": "Feature", "properties": { "Name": "Barbizon School Of San Francisco", "Lat": 37.78938, "Long": -122.406448, "Distance": 1224.0, "Category": "Elementary School", "Company": "Samasource", "City": "San Francisco" }, "geometry": { "type": "Point", "coordinates": [ -122.406448, 37.78938 ] } },
{ "type": "Feature", "properties": { "Name": "San Francisco County Office Of Education", "Lat": 37.779029, "Long": -122.415801, "Distance": 1229.0, "Category": "Elementary School", "Company": "Samasource", "City": "San Francisco" }, "geometry": { "type": "Point", "coordinates": [ -122.415801, 37.779029 ] } },
{ "type": "Feature", "properties": { "Name": "Technapex Elementary School", "Lat": 37.791458, "Long": -122.40105, "Distance": 1386.0, "Category": "Elementary School", "Company": "Samasource", "City": "San Francisco" }, "geometry": { "type": "Point", "coordinates": [ -122.40105, 37.791458 ] } },
{ "type": "Feature", "properties": { "Name": "Autodesk Authorized Training Centers Sfsu Downtown Center", "Lat": 37.791156, "Long": -122.398164, "Distance": 1389.0, "Category": "Elementary School", "Company": "Samasource", "City": "San Francisco" }, "geometry": { "type": "Point", "coordinates": [ -122.398164, 37.791156 ] } },
{ "type": "Feature", "properties": { "Name": "Oxford Elementary School", "Lat": 37.791248, "Long": -122.396521, "Distance": 1438.0, "Category": "Elementary School", "Company": "Samasource", "City": "San Francisco" }, "geometry": { "type": "Point", "coordinates": [ -122.396521, 37.791248 ] } },
{ "type": "Feature", "properties": { "Name": "Education Financing", "Lat": 37.792234, "Long": -122.398156, "Distance": 1506.0, "Category": "Elementary School", "Company": "Samasource", "City": "San Francisco" }, "geometry": { "type": "Point", "coordinates": [ -122.398156, 37.792234 ] } },
{ "type": "Feature", "properties": { "Name": "Community Alliance For Special Education", "Lat": 37.767522, "Long": -122.41118, "Distance": 1517.0, "Category": "Elementary School", "Company": "Samasource", "City": "San Francisco" }, "geometry": { "type": "Point", "coordinates": [ -122.41118, 37.767522 ] } },
{ "type": "Feature", "properties": { "Name": "Glenmoor Elementary School", "Lat": 37.791721, "Long": -122.393322, "Distance": 1598.0, "Category": "Elementary School", "Company": "Samasource", "City": "San Francisco" }, "geometry": { "type": "Point", "coordinates": [ -122.393322, 37.791721 ] } },
{ "type": "Feature", "properties": { "Name": "Tenderlion Pre-K School", "Lat": 37.781857, "Long": -122.419839, "Distance": 1615.0, "Category": "Elementary School", "Company": "Samasource", "City": "San Francisco" }, "geometry": { "type": "Point", "coordinates": [ -122.419839, 37.781857 ] } },
{ "type": "Feature", "properties": { "Name": "Helix Medical Communications", "Lat": 37.793637, "Long": -122.401608, "Distance": 1627.0, "Category": "Elementary School", "Company": "Samasource", "City": "San Francisco" }, "geometry": { "type": "Point", "coordinates": [ -122.401608, 37.793637 ] } },
{ "type": "Feature", "properties": { "Name": "Chinese Central High School", "Lat": 37.793537, "Long": -122.408055, "Distance": 1707.0, "Category": "Elementary School", "Company": "Samasource", "City": "San Francisco" }, "geometry": { "type": "Point", "coordinates": [ -122.408055, 37.793537 ] } },
{ "type": "Feature", "properties": { "Name": "San Francisco Supt of Schools", "Lat": 37.779292, "Long": -122.422196, "Distance": 1791.0, "Category": "Elementary School", "Company": "Samasource", "City": "San Francisco" }, "geometry": { "type": "Point", "coordinates": [ -122.422196, 37.779292 ] } },
{ "type": "Feature", "properties": { "Name": "Camp Doodles", "Lat": 37.7754, "Long": -122.421823, "Distance": 1803.0, "Category": "Elementary School", "Company": "Samasource", "City": "San Francisco" }, "geometry": { "type": "Point", "coordinates": [ -122.421823, 37.7754 ] } },
{ "type": "Feature", "properties": { "Name": "The New School of San Francisco", "Lat": 37.761752, "Long": -122.400734, "Distance": 1917.0, "Category": "Elementary School", "Company": "Samasource", "City": "San Francisco" }, "geometry": { "type": "Point", "coordinates": [ -122.400734, 37.761752 ] } },
{ "type": "Feature", "properties": { "Name": "San Francisco Unified School District Financing Corporation", "Lat": 37.761703, "Long": -122.400946, "Distance": 1922.0, "Category": "Elementary School", "Company": "Samasource", "City": "San Francisco" }, "geometry": { "type": "Point", "coordinates": [ -122.400946, 37.761703 ] } },
{ "type": "Feature", "properties": { "Name": "Envision Schools", "Lat": 37.761812, "Long": -122.398659, "Distance": 1928.0, "Category": "Elementary School", "Company": "Samasource", "City": "San Francisco" }, "geometry": { "type": "Point", "coordinates": [ -122.398659, 37.761812 ] } },
{ "type": "Feature", "properties": { "Name": "Creative Arts Charter School", "Lat": 37.761503, "Long": -122.400576, "Distance": 1946.0, "Category": "Elementary School", "Company": "Samasource", "City": "San Francisco" }, "geometry": { "type": "Point", "coordinates": [ -122.400576, 37.761503 ] } },
{ "type": "Feature", "properties": { "Name": "Brightworks School", "Lat": 37.762286, "Long": -122.410441, "Distance": 2005.0, "Category": "Elementary School", "Company": "Samasource", "City": "San Francisco" }, "geometry": { "type": "Point", "coordinates": [ -122.410441, 37.762286 ] } },
{ "type": "Feature", "properties": { "Name": "Campus Lane Publishing", "Lat": 37.797375, "Long": -122.405701, "Distance": 2071.0, "Category": "Elementary School", "Company": "Samasource", "City": "San Francisco" }, "geometry": { "type": "Point", "coordinates": [ -122.405701, 37.797375 ] } },
{ "type": "Feature", "properties": { "Name": "Glen Cove Elementary School", "Lat": 38.07449, "Long": -122.208037, "Distance": 1135.0, "Category": "Elementary School", "Company": "Echo", "City": "San francisco" }, "geometry": { "type": "Point", "coordinates": [ -122.208037, 38.07449 ] } },
{ "type": "Feature", "properties": { "Name": "Joe Henderson Elementary School", "Lat": 38.082068, "Long": -122.170461, "Distance": 1652.0, "Category": "Elementary School", "Company": "Echo", "City": "San francisco" }, "geometry": { "type": "Point", "coordinates": [ -122.170461, 38.082068 ] } },
{ "type": "Feature", "properties": { "Name": "Mary Farmar Elementary School", "Lat": 38.062909, "Long": -122.170232, "Distance": 1910.0, "Category": "Elementary School", "Company": "Echo", "City": "San francisco" }, "geometry": { "type": "Point", "coordinates": [ -122.170232, 38.062909 ] } },
{ "type": "Feature", "properties": { "Name": "Vallejo City Unified School District", "Lat": 38.074528, "Long": -122.207967, "Distance": 1758.0, "Category": "Elementary School", "Company": "Echo", "City": "San francisco" }, "geometry": { "type": "Point", "coordinates": [ -122.207967, 38.074528 ] } },
{ "type": "Feature", "properties": { "Name": "Benicia Unified School District Educational Facilities Corporation", "Lat": 38.08203, "Long": -122.170531, "Distance": 1829.0, "Category": "Elementary School", "Company": "Echo", "City": "San francisco" }, "geometry": { "type": "Point", "coordinates": [ -122.170531, 38.08203 ] } },
{ "type": "Feature", "properties": { "Name": "Benicia Unified School District", "Lat": 38.062077, "Long": -122.171768, "Distance": 1861.0, "Category": "Elementary School", "Company": "Echo", "City": "San francisco" }, "geometry": { "type": "Point", "coordinates": [ -122.171768, 38.062077 ] } },
{ "type": "Feature", "properties": { "Name": "Soho Parish C of E Primary School", "Lat": 51.511711, "Long": -0.134438, "Distance": 542.0, "Category": "Elementary School", "Company": "Seedcamp", "City": "London" }, "geometry": { "type": "Point", "coordinates": [ -0.134438, 51.511711 ] } },
{ "type": "Feature", "properties": { "Name": "St George's Hanover Square Primary School", "Lat": 51.508825, "Long": -0.15002, "Distance": 609.0, "Category": "Elementary School", "Company": "Seedcamp", "City": "London" }, "geometry": { "type": "Point", "coordinates": [ -0.15002, 51.508825 ] } },
{ "type": "Feature", "properties": { "Name": "UK College for Health, Medical & Research", "Lat": 51.518432, "Long": -0.142351, "Distance": 843.0, "Category": "Elementary School", "Company": "Seedcamp", "City": "London" }, "geometry": { "type": "Point", "coordinates": [ -0.142351, 51.518432 ] } },
{ "type": "Feature", "properties": { "Name": "St Vincent's RC Primary School", "Lat": 51.518555, "Long": -0.152535, "Distance": 992.0, "Category": "Elementary School", "Company": "Seedcamp", "City": "London" }, "geometry": { "type": "Point", "coordinates": [ -0.152535, 51.518555 ] } },
{ "type": "Feature", "properties": { "Name": "All Souls C of E Primary School", "Lat": 51.519959, "Long": -0.138584, "Distance": 1027.0, "Category": "Elementary School", "Company": "Seedcamp", "City": "London" }, "geometry": { "type": "Point", "coordinates": [ -0.138584, 51.519959 ] } },
{ "type": "Feature", "properties": { "Name": "St Josephs R C Primary School", "Lat": 51.516193, "Long": -0.121731, "Distance": 1497.0, "Category": "Elementary School", "Company": "Seedcamp", "City": "London" }, "geometry": { "type": "Point", "coordinates": [ -0.121731, 51.516193 ] } },
{ "type": "Feature", "properties": { "Name": "St Clement Danes C of E Primary School", "Lat": 51.513551, "Long": -0.119217, "Distance": 1575.0, "Category": "Elementary School", "Company": "Seedcamp", "City": "London" }, "geometry": { "type": "Point", "coordinates": [ -0.119217, 51.513551 ] } },
{ "type": "Feature", "properties": { "Name": "Connaught House School", "Lat": 51.513903, "Long": -0.164154, "Distance": 1575.0, "Category": "Elementary School", "Company": "Seedcamp", "City": "London" }, "geometry": { "type": "Point", "coordinates": [ -0.164154, 51.513903 ] } },
{ "type": "Feature", "properties": { "Name": "St Matthew's CE Primary School", "Lat": 51.497346, "Long": -0.130885, "Distance": 1664.0, "Category": "Elementary School", "Company": "Seedcamp", "City": "London" }, "geometry": { "type": "Point", "coordinates": [ -0.130885, 51.497346 ] } },
{ "type": "Feature", "properties": { "Name": "St Peter's Eaton Square C of E School", "Lat": 51.496057, "Long": -0.146512, "Distance": 1677.0, "Category": "Elementary School", "Company": "Seedcamp", "City": "London" }, "geometry": { "type": "Point", "coordinates": [ -0.146512, 51.496057 ] } },
{ "type": "Feature", "properties": { "Name": "St Vincent de Paul RC Primary School", "Lat": 51.495751, "Long": -0.140289, "Distance": 1684.0, "Category": "Elementary School", "Company": "Seedcamp", "City": "London" }, "geometry": { "type": "Point", "coordinates": [ -0.140289, 51.495751 ] } },
{ "type": "Feature", "properties": { "Name": "St Peter's Eaton Square CE Primary", "Lat": 51.496006, "Long": -0.146452, "Distance": 1690.0, "Category": "Elementary School", "Company": "Seedcamp", "City": "London" }, "geometry": { "type": "Point", "coordinates": [ -0.146452, 51.496006 ] } },
{ "type": "Feature", "properties": { "Name": "St Mary's Bryanston Sqaure Primary School", "Lat": 51.520402, "Long": -0.162864, "Distance": 1794.0, "Category": "Elementary School", "Company": "Seedcamp", "City": "London" }, "geometry": { "type": "Point", "coordinates": [ -0.162864, 51.520402 ] } },
{ "type": "Feature", "properties": { "Name": "Netley Primary School & Centre for Autism", "Lat": 51.527869, "Long": -0.140646, "Distance": 1889.0, "Category": "Elementary School", "Company": "Seedcamp", "City": "London" }, "geometry": { "type": "Point", "coordinates": [ -0.140646, 51.527869 ] } },
{ "type": "Feature", "properties": { "Name": "Francis Holland School", "Lat": 51.524693, "Long": -0.160166, "Distance": 2001.0, "Category": "Elementary School", "Company": "Seedcamp", "City": "London" }, "geometry": { "type": "Point", "coordinates": [ -0.160166, 51.524693 ] } },
{ "type": "Feature", "properties": { "Name": "Eaton House School", "Lat": 51.494096, "Long": -0.154935, "Distance": 2070.0, "Category": "Elementary School", "Company": "Seedcamp", "City": "London" }, "geometry": { "type": "Point", "coordinates": [ -0.154935, 51.494096 ] } },
{ "type": "Feature", "properties": { "Name": "Holy Trinity C of E Primary School", "Lat": 51.493418, "Long": -0.15672, "Distance": 2207.0, "Category": "Elementary School", "Company": "Seedcamp", "City": "London" }, "geometry": { "type": "Point", "coordinates": [ -0.15672, 51.493418 ] } },
{ "type": "Feature", "properties": { "Name": "Christ Church Primary School", "Lat": 51.530895, "Long": -0.144211, "Distance": 2232.0, "Category": "Elementary School", "Company": "Seedcamp", "City": "London" }, "geometry": { "type": "Point", "coordinates": [ -0.144211, 51.530895 ] } },
{ "type": "Feature", "properties": { "Name": "Millbank Primary School", "Lat": 51.491938, "Long": -0.130338, "Distance": 2242.0, "Category": "Elementary School", "Company": "Seedcamp", "City": "London" }, "geometry": { "type": "Point", "coordinates": [ -0.130338, 51.491938 ] } },
{ "type": "Feature", "properties": { "Name": "Argyle School", "Lat": 51.528292, "Long": -0.124448, "Distance": 2282.0, "Category": "Elementary School", "Company": "Seedcamp", "City": "London" }, "geometry": { "type": "Point", "coordinates": [ -0.124448, 51.528292 ] } },
{ "type": "Feature", "properties": { "Name": "St Barnabas, Pimlico", "Lat": 51.490401, "Long": -0.151777, "Distance": 2325.0, "Category": "Elementary School", "Company": "Seedcamp", "City": "London" }, "geometry": { "type": "Point", "coordinates": [ -0.151777, 51.490401 ] } },
{ "type": "Feature", "properties": { "Name": "Argyle Primary School", "Lat": 51.528742, "Long": -0.124083, "Distance": 2336.0, "Category": "Elementary School", "Company": "Seedcamp", "City": "London" }, "geometry": { "type": "Point", "coordinates": [ -0.124083, 51.528742 ] } },
{ "type": "Feature", "properties": { "Name": "Oasis Academy Johanna", "Lat": 51.501621, "Long": -0.111636, "Distance": 2341.0, "Category": "Elementary School", "Company": "Seedcamp", "City": "London" }, "geometry": { "type": "Point", "coordinates": [ -0.111636, 51.501621 ] } },
{ "type": "Feature", "properties": { "Name": "St Aloysius Junior School", "Lat": 51.531507, "Long": -0.134495, "Distance": 2348.0, "Category": "Elementary School", "Company": "Seedcamp", "City": "London" }, "geometry": { "type": "Point", "coordinates": [ -0.134495, 51.531507 ] } },
{ "type": "Feature", "properties": { "Name": "St Albans Primary School", "Lat": 51.520223, "Long": -0.110579, "Distance": 2401.0, "Category": "Elementary School", "Company": "Seedcamp", "City": "London" }, "geometry": { "type": "Point", "coordinates": [ -0.110579, 51.520223 ] } },
{ "type": "Feature", "properties": { "Name": "St Mary and St Pancras Church of England Primary School", "Lat": 51.532217, "Long": -0.134337, "Distance": 2427.0, "Category": "Elementary School", "Company": "Seedcamp", "City": "London" }, "geometry": { "type": "Point", "coordinates": [ -0.134337, 51.532217 ] } },
{ "type": "Feature", "properties": { "Name": "Fairley House Junior School", "Lat": 51.495111, "Long": -0.117882, "Distance": 2428.0, "Category": "Elementary School", "Company": "Seedcamp", "City": "London" }, "geometry": { "type": "Point", "coordinates": [ -0.117882, 51.495111 ] } },
{ "type": "Feature", "properties": { "Name": "St Josephs Primary School", "Lat": 51.493005, "Long": -0.162098, "Distance": 2435.0, "Category": "Elementary School", "Company": "Seedcamp", "City": "London" }, "geometry": { "type": "Point", "coordinates": [ -0.162098, 51.493005 ] } },
{ "type": "Feature", "properties": { "Name": "Christopher Hatton Primary School", "Lat": 51.522691, "Long": -0.112192, "Distance": 2446.0, "Category": "Elementary School", "Company": "Seedcamp", "City": "London" }, "geometry": { "type": "Point", "coordinates": [ -0.112192, 51.522691 ] } },
{ "type": "Feature", "properties": { "Name": "St Georges Hanover Square C of E Primary School", "Lat": 51.50877, "Long": -0.150054, "Distance": 610.0, "Category": "Elementary School", "Company": "Seedcamp", "City": "London" }, "geometry": { "type": "Point", "coordinates": [ -0.150054, 51.50877 ] } },
{ "type": "Feature", "properties": { "Name": "Elliot Foundation", "Lat": 51.525345, "Long": -0.116806, "Distance": 2365.0, "Category": "Elementary School", "Company": "Seedcamp", "City": "London" }, "geometry": { "type": "Point", "coordinates": [ -0.116806, 51.525345 ] } },
{ "type": "Feature", "properties": { "Name": "Eaton Square School", "Lat": 51.492765, "Long": -0.142835, "Distance": 2022.0, "Category": "Elementary School", "Company": "Seedcamp", "City": "London" }, "geometry": { "type": "Point", "coordinates": [ -0.142835, 51.492765 ] } },
{ "type": "Feature", "properties": { "Name": "Emerson Elementary School", "Lat": 44.968294, "Long": -93.280364, "Distance": 1581.0, "Category": "Elementary School", "Company": "Idea Shower", "City": "Minneapolis" }, "geometry": { "type": "Point", "coordinates": [ -93.280364, 44.968294 ] } },
{ "type": "Feature", "properties": { "Name": "Hennepin Elementary School", "Lat": 44.961302, "Long": -93.271211, "Distance": 1902.0, "Category": "Elementary School", "Company": "Idea Shower", "City": "Minneapolis" }, "geometry": { "type": "Point", "coordinates": [ -93.271211, 44.961302 ] } },
{ "type": "Feature", "properties": { "Name": "Minneapolis Public Schools", "Lat": 44.981505, "Long": -93.262388, "Distance": 472.0, "Category": "Elementary School", "Company": "Idea Shower", "City": "Minneapolis" }, "geometry": { "type": "Point", "coordinates": [ -93.262388, 44.981505 ] } },
{ "type": "Feature", "properties": { "Name": "Downtown Open Elementary School", "Lat": 44.975665, "Long": -93.269897, "Distance": 480.0, "Category": "Elementary School", "Company": "Idea Shower", "City": "Minneapolis" }, "geometry": { "type": "Point", "coordinates": [ -93.269897, 44.975665 ] } },
{ "type": "Feature", "properties": { "Name": "Religion Information Resources", "Lat": 44.9723, "Long": -93.260737, "Distance": 642.0, "Category": "Elementary School", "Company": "Idea Shower", "City": "Minneapolis" }, "geometry": { "type": "Point", "coordinates": [ -93.260737, 44.9723 ] } },
{ "type": "Feature", "properties": { "Name": "The Loft", "Lat": 44.975595, "Long": -93.254243, "Distance": 821.0, "Category": "Elementary School", "Company": "Idea Shower", "City": "Minneapolis" }, "geometry": { "type": "Point", "coordinates": [ -93.254243, 44.975595 ] } },
{ "type": "Feature", "properties": { "Name": "Minneapolis Public Schools", "Lat": 44.975242, "Long": -93.276944, "Distance": 1020.0, "Category": "Elementary School", "Company": "Idea Shower", "City": "Minneapolis" }, "geometry": { "type": "Point", "coordinates": [ -93.276944, 44.975242 ] } },
{ "type": "Feature", "properties": { "Name": "Learningware", "Lat": 44.989289, "Long": -93.27431, "Distance": 1527.0, "Category": "Elementary School", "Company": "Idea Shower", "City": "Minneapolis" }, "geometry": { "type": "Point", "coordinates": [ -93.27431, 44.989289 ] } },
{ "type": "Feature", "properties": { "Name": "Connection Center", "Lat": 44.973706, "Long": -93.285742, "Distance": 1733.0, "Category": "Elementary School", "Company": "Idea Shower", "City": "Minneapolis" }, "geometry": { "type": "Point", "coordinates": [ -93.285742, 44.973706 ] } },
{ "type": "Feature", "properties": { "Name": "Chiron Middle School", "Lat": 44.973812, "Long": -93.285794, "Distance": 1734.0, "Category": "Elementary School", "Company": "Idea Shower", "City": "Minneapolis" }, "geometry": { "type": "Point", "coordinates": [ -93.285794, 44.973812 ] } },
{ "type": "Feature", "properties": { "Name": "Kipp Minnesota", "Lat": 44.973803, "Long": -93.28613, "Distance": 1760.0, "Category": "Elementary School", "Company": "Idea Shower", "City": "Minneapolis" }, "geometry": { "type": "Point", "coordinates": [ -93.28613, 44.973803 ] } },
{ "type": "Feature", "properties": { "Name": "Four Winds American Indian Elementary School", "Lat": 44.960008, "Long": -93.263098, "Distance": 1944.0, "Category": "Elementary School", "Company": "Idea Shower", "City": "Minneapolis" }, "geometry": { "type": "Point", "coordinates": [ -93.263098, 44.960008 ] } },
{ "type": "Feature", "properties": { "Name": "Phillips Elementary School", "Lat": 44.959902, "Long": -93.263047, "Distance": 1956.0, "Category": "Elementary School", "Company": "Idea Shower", "City": "Minneapolis" }, "geometry": { "type": "Point", "coordinates": [ -93.263047, 44.959902 ] } },
{ "type": "Feature", "properties": { "Name": "Minneapolis Public Schools", "Lat": 44.994211, "Long": -93.256231, "Distance": 1965.0, "Category": "Elementary School", "Company": "Idea Shower", "City": "Minneapolis" }, "geometry": { "type": "Point", "coordinates": [ -93.256231, 44.994211 ] } },
{ "type": "Feature", "properties": { "Name": "Gaia Democratic School", "Lat": 44.980583, "Long": -93.238147, "Distance": 2088.0, "Category": "Elementary School", "Company": "Idea Shower", "City": "Minneapolis" }, "geometry": { "type": "Point", "coordinates": [ -93.238147, 44.980583 ] } },
{ "type": "Feature", "properties": { "Name": "Minneapolis Public Schools", "Lat": 44.963218, "Long": -93.246544, "Distance": 2114.0, "Category": "Elementary School", "Company": "Idea Shower", "City": "Minneapolis" }, "geometry": { "type": "Point", "coordinates": [ -93.246544, 44.963218 ] } },
{ "type": "Feature", "properties": { "Name": "Learning In Style", "Lat": 44.96063, "Long": -93.278331, "Distance": 2171.0, "Category": "Elementary School", "Company": "Idea Shower", "City": "Minneapolis" }, "geometry": { "type": "Point", "coordinates": [ -93.278331, 44.96063 ] } },
{ "type": "Feature", "properties": { "Name": "Minneapolis Public School Transportation Services", "Lat": 44.978156, "Long": -93.292411, "Distance": 2207.0, "Category": "Elementary School", "Company": "Idea Shower", "City": "Minneapolis" }, "geometry": { "type": "Point", "coordinates": [ -93.292411, 44.978156 ] } },
{ "type": "Feature", "properties": { "Name": "Association-Waldorf School", "Lat": 44.959412, "Long": -93.27828, "Distance": 2287.0, "Category": "Elementary School", "Company": "Idea Shower", "City": "Minneapolis" }, "geometry": { "type": "Point", "coordinates": [ -93.27828, 44.959412 ] } },
{ "type": "Feature", "properties": { "Name": "Minneapolis Public Schools", "Lat": 44.9999, "Long": -93.262862, "Distance": 2493.0, "Category": "Elementary School", "Company": "Idea Shower", "City": "Minneapolis" }, "geometry": { "type": "Point", "coordinates": [ -93.262862, 44.9999 ] } },
{ "type": "Feature", "properties": { "Name": "Hope Academy", "Lat": 44.960186, "Long": -93.263378, "Distance": 1919.0, "Category": "Elementary School", "Company": "Idea Shower", "City": "Minneapolis" }, "geometry": { "type": "Point", "coordinates": [ -93.263378, 44.960186 ] } },
{ "type": "Feature", "properties": { "Name": "Metro Schools College Prep", "Lat": 44.985036, "Long": -93.286428, "Distance": 1932.0, "Category": "Elementary School", "Company": "Idea Shower", "City": "Minneapolis" }, "geometry": { "type": "Point", "coordinates": [ -93.286428, 44.985036 ] } },
{ "type": "Feature", "properties": { "Name": "George R Moscone Elementary School", "Lat": 37.756468, "Long": -122.412606, "Distance": 220.0, "Category": "Elementary School", "Company": "Pageflakes", "City": "San Francisco" }, "geometry": { "type": "Point", "coordinates": [ -122.412606, 37.756468 ] } },
{ "type": "Feature", "properties": { "Name": "Cesar Chavez Elementary School", "Lat": 37.754971, "Long": -122.415098, "Distance": 352.0, "Category": "Elementary School", "Company": "Pageflakes", "City": "San Francisco" }, "geometry": { "type": "Point", "coordinates": [ -122.415098, 37.754971 ] } },
{ "type": "Feature", "properties": { "Name": "Buena Vista Horace Mann School", "Lat": 37.753017, "Long": -122.421002, "Distance": 777.0, "Category": "Elementary School", "Company": "Pageflakes", "City": "San Francisco" }, "geometry": { "type": "Point", "coordinates": [ -122.421002, 37.753017 ] } },
{ "type": "Feature", "properties": { "Name": "Marshall Elementary School", "Lat": 37.766468, "Long": -122.419001, "Distance": 979.0, "Category": "Elementary School", "Company": "Pageflakes", "City": "San Francisco" }, "geometry": { "type": "Point", "coordinates": [ -122.419001, 37.766468 ] } },
{ "type": "Feature", "properties": { "Name": "Bryant Elementary School", "Lat": 37.751672, "Long": -122.404798, "Distance": 1118.0, "Category": "Elementary School", "Company": "Pageflakes", "City": "San Francisco" }, "geometry": { "type": "Point", "coordinates": [ -122.404798, 37.751672 ] } },
{ "type": "Feature", "properties": { "Name": "Katherine Michiels School", "Lat": 37.749812, "Long": -122.422317, "Distance": 1148.0, "Category": "Elementary School", "Company": "Pageflakes", "City": "San Francisco" }, "geometry": { "type": "Point", "coordinates": [ -122.422317, 37.749812 ] } },
{ "type": "Feature", "properties": { "Name": "Leonard R Flynn Elementary School", "Lat": 37.747826, "Long": -122.411953, "Distance": 1150.0, "Category": "Elementary School", "Company": "Pageflakes", "City": "San Francisco" }, "geometry": { "type": "Point", "coordinates": [ -122.411953, 37.747826 ] } },
{ "type": "Feature", "properties": { "Name": "Mission Dolores", "Lat": 37.764382, "Long": -122.427478, "Distance": 1284.0, "Category": "Elementary School", "Company": "Pageflakes", "City": "San Francisco" }, "geometry": { "type": "Point", "coordinates": [ -122.427478, 37.764382 ] } },
{ "type": "Feature", "properties": { "Name": "Starr King Elementary School", "Lat": 37.753305, "Long": -122.399233, "Distance": 1449.0, "Category": "Elementary School", "Company": "Pageflakes", "City": "San Francisco" }, "geometry": { "type": "Point", "coordinates": [ -122.399233, 37.753305 ] } },
{ "type": "Feature", "properties": { "Name": "Live Oak School", "Lat": 37.763509, "Long": -122.399117, "Distance": 1471.0, "Category": "Elementary School", "Company": "Pageflakes", "City": "San Francisco" }, "geometry": { "type": "Point", "coordinates": [ -122.399117, 37.763509 ] } },
{ "type": "Feature", "properties": { "Name": "Sanchez Elementary School", "Lat": 37.76353, "Long": -122.430509, "Distance": 1548.0, "Category": "Elementary School", "Company": "Pageflakes", "City": "San Francisco" }, "geometry": { "type": "Point", "coordinates": [ -122.430509, 37.76353 ] } },
{ "type": "Feature", "properties": { "Name": "Daniel Webster Elementary SCHL", "Lat": 37.760587, "Long": -122.395863, "Distance": 1714.0, "Category": "Elementary School", "Company": "Pageflakes", "City": "San Francisco" }, "geometry": { "type": "Point", "coordinates": [ -122.395863, 37.760587 ] } },
{ "type": "Feature", "properties": { "Name": "Saint Philip the Apostle School", "Lat": 37.751676, "Long": -122.43597, "Distance": 1945.0, "Category": "Elementary School", "Company": "Pageflakes", "City": "San Francisco" }, "geometry": { "type": "Point", "coordinates": [ -122.43597, 37.751676 ] } },
{ "type": "Feature", "properties": { "Name": "Chinese American International School", "Lat": 37.775313, "Long": -122.422104, "Distance": 2015.0, "Category": "Elementary School", "Company": "Pageflakes", "City": "San Francisco" }, "geometry": { "type": "Point", "coordinates": [ -122.422104, 37.775313 ] } },
{ "type": "Feature", "properties": { "Name": "John Muir Elementary School", "Lat": 37.773721, "Long": -122.428819, "Distance": 2100.0, "Category": "Elementary School", "Company": "Pageflakes", "City": "San Francisco" }, "geometry": { "type": "Point", "coordinates": [ -122.428819, 37.773721 ] } },
{ "type": "Feature", "properties": { "Name": "McKinley Elementary School", "Lat": 37.766996, "Long": -122.436448, "Distance": 2135.0, "Category": "Elementary School", "Company": "Pageflakes", "City": "San Francisco" }, "geometry": { "type": "Point", "coordinates": [ -122.436448, 37.766996 ] } },
{ "type": "Feature", "properties": { "Name": "Alvarado Elementary School", "Lat": 37.75374, "Long": -122.438457, "Distance": 2136.0, "Category": "Elementary School", "Company": "Pageflakes", "City": "San Francisco" }, "geometry": { "type": "Point", "coordinates": [ -122.438457, 37.75374 ] } },
{ "type": "Feature", "properties": { "Name": "Bessie Carmichael Elementary School", "Lat": 37.776344, "Long": -122.406468, "Distance": 2146.0, "Category": "Elementary School", "Company": "Pageflakes", "City": "San Francisco" }, "geometry": { "type": "Point", "coordinates": [ -122.406468, 37.776344 ] } },
{ "type": "Feature", "properties": { "Name": "Fairmount Elementary School", "Lat": 37.740274, "Long": -122.425265, "Distance": 2184.0, "Category": "Elementary School", "Company": "Pageflakes", "City": "San Francisco" }, "geometry": { "type": "Point", "coordinates": [ -122.425265, 37.740274 ] } },
{ "type": "Feature", "properties": { "Name": "Mission Education Center", "Lat": 37.742196, "Long": -122.431325, "Distance": 2314.0, "Category": "Elementary School", "Company": "Pageflakes", "City": "San Francisco" }, "geometry": { "type": "Point", "coordinates": [ -122.431325, 37.742196 ] } },
{ "type": "Feature", "properties": { "Name": "Paul Revere Elementary School", "Lat": 37.737247, "Long": -122.41312, "Distance": 2332.0, "Category": "Elementary School", "Company": "Pageflakes", "City": "San Francisco" }, "geometry": { "type": "Point", "coordinates": [ -122.41312, 37.737247 ] } },
{ "type": "Feature", "properties": { "Name": "Junipero Serra Elementary School", "Lat": 37.737006, "Long": -122.421417, "Distance": 2430.0, "Category": "Elementary School", "Company": "Pageflakes", "City": "San Francisco" }, "geometry": { "type": "Point", "coordinates": [ -122.421417, 37.737006 ] } },
{ "type": "Feature", "properties": { "Name": "O'Connell John School Of Tech", "Lat": 37.759498, "Long": -122.414433, "Distance": 155.0, "Category": "Elementary School", "Company": "Pageflakes", "City": "San Francisco" }, "geometry": { "type": "Point", "coordinates": [ -122.414433, 37.759498 ] } },
{ "type": "Feature", "properties": { "Name": "San Francisco Unified School District", "Lat": 37.759617, "Long": -122.414584, "Distance": 167.0, "Category": "Elementary School", "Company": "Pageflakes", "City": "San Francisco" }, "geometry": { "type": "Point", "coordinates": [ -122.414584, 37.759617 ] } },
{ "type": "Feature", "properties": { "Name": "Las Americas Nursery & School-Age Children's Center", "Lat": 37.75714, "Long": -122.413219, "Distance": 168.0, "Category": "Elementary School", "Company": "Pageflakes", "City": "San Francisco" }, "geometry": { "type": "Point", "coordinates": [ -122.413219, 37.75714 ] } },
{ "type": "Feature", "properties": { "Name": "Cesar Chavez Prekindergarten", "Lat": 37.754971, "Long": -122.415098, "Distance": 350.0, "Category": "Elementary School", "Company": "Pageflakes", "City": "San Francisco" }, "geometry": { "type": "Point", "coordinates": [ -122.415098, 37.754971 ] } },
{ "type": "Feature", "properties": { "Name": "St Charles School", "Lat": 37.762202, "Long": -122.416241, "Distance": 474.0, "Category": "Elementary School", "Company": "Pageflakes", "City": "San Francisco" }, "geometry": { "type": "Point", "coordinates": [ -122.416241, 37.762202 ] } },
{ "type": "Feature", "properties": { "Name": "S F City & County - City College of San Francisco, Mission Campus", "Lat": 37.755056, "Long": -122.419976, "Distance": 575.0, "Category": "Elementary School", "Company": "Pageflakes", "City": "San Francisco" }, "geometry": { "type": "Point", "coordinates": [ -122.419976, 37.755056 ] } },
{ "type": "Feature", "properties": { "Name": "Downtown High School", "Lat": 37.754915, "Long": -122.420111, "Distance": 594.0, "Category": "Elementary School", "Company": "Pageflakes", "City": "San Francisco" }, "geometry": { "type": "Point", "coordinates": [ -122.420111, 37.754915 ] } },
{ "type": "Feature", "properties": { "Name": "Brightworks School", "Lat": 37.762286, "Long": -122.410441, "Distance": 595.0, "Category": "Elementary School", "Company": "Pageflakes", "City": "San Francisco" }, "geometry": { "type": "Point", "coordinates": [ -122.410441, 37.762286 ] } },
{ "type": "Feature", "properties": { "Name": "Golden Bridges School", "Lat": 37.755402, "Long": -122.422289, "Distance": 732.0, "Category": "Elementary School", "Company": "Pageflakes", "City": "San Francisco" }, "geometry": { "type": "Point", "coordinates": [ -122.422289, 37.755402 ] } },
{ "type": "Feature", "properties": { "Name": "The Roman Catholic Archdiocese of San Francisco", "Lat": 37.751752, "Long": -122.410178, "Distance": 810.0, "Category": "Elementary School", "Company": "Pageflakes", "City": "San Francisco" }, "geometry": { "type": "Point", "coordinates": [ -122.410178, 37.751752 ] } },
{ "type": "Feature", "properties": { "Name": "Zaida T Rodriguez Pre K", "Lat": 37.750155, "Long": -122.419113, "Distance": 965.0, "Category": "Elementary School", "Company": "Pageflakes", "City": "San Francisco" }, "geometry": { "type": "Point", "coordinates": [ -122.419113, 37.750155 ] } },
{ "type": "Feature", "properties": { "Name": "ADDA Clevenger Jr Preparatory", "Lat": 37.753704, "Long": -122.42441, "Distance": 984.0, "Category": "Elementary School", "Company": "Pageflakes", "City": "San Francisco" }, "geometry": { "type": "Point", "coordinates": [ -122.42441, 37.753704 ] } },
{ "type": "Feature", "properties": { "Name": "Alberti Schools", "Lat": 37.753704, "Long": -122.42441, "Distance": 984.0, "Category": "Elementary School", "Company": "Pageflakes", "City": "San Francisco" }, "geometry": { "type": "Point", "coordinates": [ -122.42441, 37.753704 ] } },
{ "type": "Feature", "properties": { "Name": "Community Alliance For Special Education", "Lat": 37.767522, "Long": -122.41118, "Distance": 1090.0, "Category": "Elementary School", "Company": "Pageflakes", "City": "San Francisco" }, "geometry": { "type": "Point", "coordinates": [ -122.41118, 37.767522 ] } },
{ "type": "Feature", "properties": { "Name": "Bryant Pre K", "Lat": 37.751672, "Long": -122.404798, "Distance": 1125.0, "Category": "Elementary School", "Company": "Pageflakes", "City": "San Francisco" }, "geometry": { "type": "Point", "coordinates": [ -122.404798, 37.751672 ] } },
{ "type": "Feature", "properties": { "Name": "Buena Vista State Preschool Pre-K School", "Lat": 37.751672, "Long": -122.404798, "Distance": 1125.0, "Category": "Elementary School", "Company": "Pageflakes", "City": "San Francisco" }, "geometry": { "type": "Point", "coordinates": [ -122.404798, 37.751672 ] } },
{ "type": "Feature", "properties": { "Name": "San Francisco Unified School District Financing Corporation", "Lat": 37.748037, "Long": -122.41218, "Distance": 1141.0, "Category": "Elementary School", "Company": "Pageflakes", "City": "San Francisco" }, "geometry": { "type": "Point", "coordinates": [ -122.41218, 37.748037 ] } },
{ "type": "Feature", "properties": { "Name": "San Francisco Unified School District Financing Corporation", "Lat": 37.761703, "Long": -122.400946, "Distance": 1271.0, "Category": "Elementary School", "Company": "Pageflakes", "City": "San Francisco" }, "geometry": { "type": "Point", "coordinates": [ -122.400946, 37.761703 ] } },
{ "type": "Feature", "properties": { "Name": "The New School of San Francisco", "Lat": 37.761752, "Long": -122.400734, "Distance": 1290.0, "Category": "Elementary School", "Company": "Pageflakes", "City": "San Francisco" }, "geometry": { "type": "Point", "coordinates": [ -122.400734, 37.761752 ] } },
{ "type": "Feature", "properties": { "Name": "Creative Arts Charter School", "Lat": 37.761503, "Long": -122.400576, "Distance": 1295.0, "Category": "Elementary School", "Company": "Pageflakes", "City": "San Francisco" }, "geometry": { "type": "Point", "coordinates": [ -122.400576, 37.761503 ] } },
{ "type": "Feature", "properties": { "Name": "San Francisco Waldorf High School", "Lat": 37.768955, "Long": -122.421944, "Distance": 1363.0, "Category": "Elementary School", "Company": "Pageflakes", "City": "San Francisco" }, "geometry": { "type": "Point", "coordinates": [ -122.421944, 37.768955 ] } },
{ "type": "Feature", "properties": { "Name": "San Francisco Unified School", "Lat": 37.763612, "Long": -122.429009, "Distance": 1398.0, "Category": "Elementary School", "Company": "Pageflakes", "City": "San Francisco" }, "geometry": { "type": "Point", "coordinates": [ -122.429009, 37.763612 ] } },
{ "type": "Feature", "properties": { "Name": "San Francisco Unified School District", "Lat": 37.75324, "Long": -122.399229, "Distance": 1462.0, "Category": "Elementary School", "Company": "Pageflakes", "City": "San Francisco" }, "geometry": { "type": "Point", "coordinates": [ -122.399229, 37.75324 ] } },
{ "type": "Feature", "properties": { "Name": "Envision Schools", "Lat": 37.761812, "Long": -122.398659, "Distance": 1467.0, "Category": "Elementary School", "Company": "Pageflakes", "City": "San Francisco" }, "geometry": { "type": "Point", "coordinates": [ -122.398659, 37.761812 ] } },
{ "type": "Feature", "properties": { "Name": "Altschool", "Lat": 37.771751, "Long": -122.409709, "Distance": 1577.0, "Category": "Elementary School", "Company": "Pageflakes", "City": "San Francisco" }, "geometry": { "type": "Point", "coordinates": [ -122.409709, 37.771751 ] } },
{ "type": "Feature", "properties": { "Name": "After 6 Continuation High Schools", "Lat": 37.749472, "Long": -122.431899, "Distance": 1791.0, "Category": "Elementary School", "Company": "Pageflakes", "City": "San Francisco" }, "geometry": { "type": "Point", "coordinates": [ -122.431899, 37.749472 ] } },
{ "type": "Feature", "properties": { "Name": "St Paul Elementary School", "Lat": 37.743928, "Long": -122.427057, "Distance": 1914.0, "Category": "Elementary School", "Company": "Pageflakes", "City": "San Francisco" }, "geometry": { "type": "Point", "coordinates": [ -122.427057, 37.743928 ] } },
{ "type": "Feature", "properties": { "Name": "San Francisco Friends School", "Lat": 37.760192, "Long": -122.436976, "Distance": 1971.0, "Category": "Elementary School", "Company": "Pageflakes", "City": "San Francisco" }, "geometry": { "type": "Point", "coordinates": [ -122.436976, 37.760192 ] } },
{ "type": "Feature", "properties": { "Name": "Ecole Saint Sauveur", "Lat": 48.866933, "Long": 2.347353, "Distance": 433.0, "Category": "Elementary School", "Company": "Netvibes", "City": "Paris" }, "geometry": { "type": "Point", "coordinates": [ 2.347353, 48.866933 ] } },
{ "type": "Feature", "properties": { "Name": "Ecole Elémentaire Mairie de Paris", "Lat": 48.867152, "Long": 2.350067, "Distance": 484.0, "Category": "Elementary School", "Company": "Netvibes", "City": "Paris" }, "geometry": { "type": "Point", "coordinates": [ 2.350067, 48.867152 ] } },
{ "type": "Feature", "properties": { "Name": "École Étienne Marcel", "Lat": 48.864187, "Long": 2.348182, "Distance": 757.0, "Category": "Elementary School", "Company": "Netvibes", "City": "Paris" }, "geometry": { "type": "Point", "coordinates": [ 2.348182, 48.864187 ] } },
{ "type": "Feature", "properties": { "Name": "Ecole Elémentaire Mairie de Paris", "Lat": 48.876808, "Long": 2.352998, "Distance": 803.0, "Category": "Elementary School", "Company": "Netvibes", "City": "Paris" }, "geometry": { "type": "Point", "coordinates": [ 2.352998, 48.876808 ] } },
{ "type": "Feature", "properties": { "Name": "École Primaire de Marseille", "Lat": 48.871794, "Long": 2.36381, "Distance": 1040.0, "Category": "Elementary School", "Company": "Netvibes", "City": "Paris" }, "geometry": { "type": "Point", "coordinates": [ 2.36381, 48.871794 ] } },
{ "type": "Feature", "properties": { "Name": "École Primaire Publique Recollets", "Lat": 48.874318, "Long": 2.360179, "Distance": 1068.0, "Category": "Elementary School", "Company": "Netvibes", "City": "Paris" }, "geometry": { "type": "Point", "coordinates": [ 2.360179, 48.874318 ] } },
{ "type": "Feature", "properties": { "Name": "Ecole Elementaire Mairie de Paris 1er Arrondissement", "Lat": 48.864966, "Long": 2.33377, "Distance": 1108.0, "Category": "Elementary School", "Company": "Netvibes", "City": "Paris" }, "geometry": { "type": "Point", "coordinates": [ 2.33377, 48.864966 ] } },
{ "type": "Feature", "properties": { "Name": "École Primaire Publique Vertus", "Lat": 48.864042, "Long": 2.358074, "Distance": 1112.0, "Category": "Elementary School", "Company": "Netvibes", "City": "Paris" }, "geometry": { "type": "Point", "coordinates": [ 2.358074, 48.864042 ] } },
{ "type": "Feature", "properties": { "Name": "École élémentaire du Renard", "Lat": 48.859365, "Long": 2.352541, "Distance": 1334.0, "Category": "Elementary School", "Company": "Netvibes", "City": "Paris" }, "geometry": { "type": "Point", "coordinates": [ 2.352541, 48.859365 ] } },
{ "type": "Feature", "properties": { "Name": "École Cambon", "Lat": 48.868069, "Long": 2.326961, "Distance": 1475.0, "Category": "Elementary School", "Company": "Netvibes", "City": "Paris" }, "geometry": { "type": "Point", "coordinates": [ 2.326961, 48.868069 ] } },
{ "type": "Feature", "properties": { "Name": "École élémentaire publique des Quatre Fils", "Lat": 48.860421, "Long": 2.360179, "Distance": 1521.0, "Category": "Elementary School", "Company": "Netvibes", "City": "Paris" }, "geometry": { "type": "Point", "coordinates": [ 2.360179, 48.860421 ] } },
{ "type": "Feature", "properties": { "Name": "Ecole Elémentaire", "Lat": 48.857785, "Long": 2.355656, "Distance": 1602.0, "Category": "Elementary School", "Company": "Netvibes", "City": "Paris" }, "geometry": { "type": "Point", "coordinates": [ 2.355656, 48.857785 ] } },
{ "type": "Feature", "properties": { "Name": "Ecole Saint-Laurent", "Lat": 48.880752, "Long": 2.362964, "Distance": 1621.0, "Category": "Elementary School", "Company": "Netvibes", "City": "Paris" }, "geometry": { "type": "Point", "coordinates": [ 2.362964, 48.880752 ] } },
{ "type": "Feature", "properties": { "Name": "Ecole Elémentaire Louis Blanc", "Lat": 48.88227, "Long": 2.362767, "Distance": 1742.0, "Category": "Elementary School", "Company": "Netvibes", "City": "Paris" }, "geometry": { "type": "Point", "coordinates": [ 2.362767, 48.88227 ] } },
{ "type": "Feature", "properties": { "Name": "École élémentaire privée Saint-Bernard Sainte-Marie", "Lat": 48.885544, "Long": 2.354771, "Distance": 1748.0, "Category": "Elementary School", "Company": "Netvibes", "City": "Paris" }, "geometry": { "type": "Point", "coordinates": [ 2.354771, 48.885544 ] } },
{ "type": "Feature", "properties": { "Name": "Ecole Elementaire Saint Maur", "Lat": 48.87233, "Long": 2.371706, "Distance": 1812.0, "Category": "Elementary School", "Company": "Netvibes", "City": "Paris" }, "geometry": { "type": "Point", "coordinates": [ 2.371706, 48.87233 ] } },
{ "type": "Feature", "properties": { "Name": "École Élémentaire Bruxelles", "Lat": 48.882395, "Long": 2.325405, "Distance": 1882.0, "Category": "Elementary School", "Company": "Netvibes", "City": "Paris" }, "geometry": { "type": "Point", "coordinates": [ 2.325405, 48.882395 ] } },
{ "type": "Feature", "properties": { "Name": "École Primaire Surène", "Lat": 48.871186, "Long": 2.320503, "Distance": 1903.0, "Category": "Elementary School", "Company": "Netvibes", "City": "Paris" }, "geometry": { "type": "Point", "coordinates": [ 2.320503, 48.871186 ] } },
{ "type": "Feature", "properties": { "Name": "Ecole élémentaire Parmentier", "Lat": 48.867661, "Long": 2.372142, "Distance": 1930.0, "Category": "Elementary School", "Company": "Netvibes", "City": "Paris" }, "geometry": { "type": "Point", "coordinates": [ 2.372142, 48.867661 ] } },
{ "type": "Feature", "properties": { "Name": "École Élementaire Pajol", "Lat": 48.885849, "Long": 2.360981, "Distance": 1975.0, "Category": "Elementary School", "Company": "Netvibes", "City": "Paris" }, "geometry": { "type": "Point", "coordinates": [ 2.360981, 48.885849 ] } },
{ "type": "Feature", "properties": { "Name": "École élémentaire Jean-François Lépine", "Lat": 48.886402, "Long": 2.358476, "Distance": 1981.0, "Category": "Elementary School", "Company": "Netvibes", "City": "Paris" }, "geometry": { "type": "Point", "coordinates": [ 2.358476, 48.886402 ] } },
{ "type": "Feature", "properties": { "Name": "École Primaire Publique Philippe de Girard", "Lat": 48.886355, "Long": 2.361374, "Distance": 1986.0, "Category": "Elementary School", "Company": "Netvibes", "City": "Paris" }, "geometry": { "type": "Point", "coordinates": [ 2.361374, 48.886355 ] } },
{ "type": "Feature", "properties": { "Name": "École Primaire Publique Bienfaisance", "Lat": 48.876882, "Long": 2.319824, "Distance": 2105.0, "Category": "Elementary School", "Company": "Netvibes", "City": "Paris" }, "geometry": { "type": "Point", "coordinates": [ 2.319824, 48.876882 ] } },
{ "type": "Feature", "properties": { "Name": "École élémentaire Saint-Jacques", "Lat": 48.851217, "Long": 2.345566, "Distance": 2176.0, "Category": "Elementary School", "Company": "Netvibes", "City": "Paris" }, "geometry": { "type": "Point", "coordinates": [ 2.345566, 48.851217 ] } },
{ "type": "Feature", "properties": { "Name": "Ecole Elémentaire Publique", "Lat": 48.851217, "Long": 2.345566, "Distance": 2205.0, "Category": "Elementary School", "Company": "Netvibes", "City": "Paris" }, "geometry": { "type": "Point", "coordinates": [ 2.345566, 48.851217 ] } },
{ "type": "Feature", "properties": { "Name": "École Primaire Publique Hermel", "Lat": 48.891239, "Long": 2.344575, "Distance": 2278.0, "Category": "Elementary School", "Company": "Netvibes", "City": "Paris" }, "geometry": { "type": "Point", "coordinates": [ 2.344575, 48.891239 ] } },
{ "type": "Feature", "properties": { "Name": "École Primaire d'application Boursault", "Lat": 48.882988, "Long": 2.321202, "Distance": 2334.0, "Category": "Elementary School", "Company": "Netvibes", "City": "Paris" }, "geometry": { "type": "Point", "coordinates": [ 2.321202, 48.882988 ] } },
{ "type": "Feature", "properties": { "Name": "Ecole Elémentaire Mairie de Paris 17e arrondissement", "Lat": 48.884895, "Long": 2.322531, "Distance": 2359.0, "Category": "Elementary School", "Company": "Netvibes", "City": "Paris" }, "geometry": { "type": "Point", "coordinates": [ 2.322531, 48.884895 ] } },
{ "type": "Feature", "properties": { "Name": "Groupe Scolaire Lucien de Hirsch", "Lat": 48.87971, "Long": 2.376358, "Distance": 2382.0, "Category": "Elementary School", "Company": "Netvibes", "City": "Paris" }, "geometry": { "type": "Point", "coordinates": [ 2.376358, 48.87971 ] } },
{ "type": "Feature", "properties": { "Name": "École élémentaire de la rue Froment", "Lat": 48.857268, "Long": 2.372545, "Distance": 2417.0, "Category": "Elementary School", "Company": "Netvibes", "City": "Paris" }, "geometry": { "type": "Point", "coordinates": [ 2.372545, 48.857268 ] } },
{ "type": "Feature", "properties": { "Name": "École Primaire Massillon", "Lat": 48.851414, "Long": 2.362543, "Distance": 2447.0, "Category": "Elementary School", "Company": "Netvibes", "City": "Paris" }, "geometry": { "type": "Point", "coordinates": [ 2.362543, 48.851414 ] } },
{ "type": "Feature", "properties": { "Name": "Ecole Elementaire Mairie de Paris", "Lat": 48.848863, "Long": 2.339924, "Distance": 2490.0, "Category": "Elementary School", "Company": "Netvibes", "City": "Paris" }, "geometry": { "type": "Point", "coordinates": [ 2.339924, 48.848863 ] } },
{ "type": "Feature", "properties": { "Name": "Ecole Elementaire Mairie de Paris 2e Arrondissement", "Lat": 48.869243, "Long": 2.348321, "Distance": 211.0, "Category": "Elementary School", "Company": "Netvibes", "City": "Paris" }, "geometry": { "type": "Point", "coordinates": [ 2.348321, 48.869243 ] } },
{ "type": "Feature", "properties": { "Name": "Groupe d'Aide Psychopédagogique", "Lat": 48.867194, "Long": 2.349748, "Distance": 459.0, "Category": "Elementary School", "Company": "Netvibes", "City": "Paris" }, "geometry": { "type": "Point", "coordinates": [ 2.349748, 48.867194 ] } },
{ "type": "Feature", "properties": { "Name": "Ecole Elémentaire Mairie de Paris", "Lat": 48.873967, "Long": 2.352824, "Distance": 570.0, "Category": "Elementary School", "Company": "Netvibes", "City": "Paris" }, "geometry": { "type": "Point", "coordinates": [ 2.352824, 48.873967 ] } },
{ "type": "Feature", "properties": { "Name": "Sogenor Formation", "Lat": 48.874649, "Long": 2.338695, "Distance": 723.0, "Category": "Elementary School", "Company": "Netvibes", "City": "Paris" }, "geometry": { "type": "Point", "coordinates": [ 2.338695, 48.874649 ] } },
{ "type": "Feature", "properties": { "Name": "Ecole Maternelle Mairie de Paris", "Lat": 48.869527, "Long": 2.360283, "Distance": 1004.0, "Category": "Elementary School", "Company": "Netvibes", "City": "Paris" }, "geometry": { "type": "Point", "coordinates": [ 2.360283, 48.869527 ] } },
{ "type": "Feature", "properties": { "Name": "Ecole Maternelle Mairie de Paris", "Lat": 48.879143, "Long": 2.35278, "Distance": 1028.0, "Category": "Elementary School", "Company": "Netvibes", "City": "Paris" }, "geometry": { "type": "Point", "coordinates": [ 2.35278, 48.879143 ] } },
{ "type": "Feature", "properties": { "Name": "Ecole Elémentaire Mairie de Paris", "Lat": 48.879143, "Long": 2.35278, "Distance": 1028.0, "Category": "Elementary School", "Company": "Netvibes", "City": "Paris" }, "geometry": { "type": "Point", "coordinates": [ 2.35278, 48.879143 ] } },
{ "type": "Feature", "properties": { "Name": "Bateau-Ecole Guérin", "Lat": 48.87201, "Long": 2.362392, "Distance": 1156.0, "Category": "Elementary School", "Company": "Netvibes", "City": "Paris" }, "geometry": { "type": "Point", "coordinates": [ 2.362392, 48.87201 ] } },
{ "type": "Feature", "properties": { "Name": "Préventis Centre d'Intervention pour la Santé au Travail", "Lat": 48.881654, "Long": 2.35155, "Distance": 1256.0, "Category": "Elementary School", "Company": "Netvibes", "City": "Paris" }, "geometry": { "type": "Point", "coordinates": [ 2.35155, 48.881654 ] } },
{ "type": "Feature", "properties": { "Name": "École Élémentaire Rue de Marseille", "Lat": 48.871637, "Long": 2.363973, "Distance": 1267.0, "Category": "Elementary School", "Company": "Netvibes", "City": "Paris" }, "geometry": { "type": "Point", "coordinates": [ 2.363973, 48.871637 ] } },
{ "type": "Feature", "properties": { "Name": "Ecole Maternelle et Elementaire St Merri", "Lat": 48.85926, "Long": 2.353023, "Distance": 1364.0, "Category": "Elementary School", "Company": "Netvibes", "City": "Paris" }, "geometry": { "type": "Point", "coordinates": [ 2.353023, 48.85926 ] } },
{ "type": "Feature", "properties": { "Name": "Ecole Elémentaire Mairie de Paris", "Lat": 48.877751, "Long": 2.330507, "Distance": 1411.0, "Category": "Elementary School", "Company": "Netvibes", "City": "Paris" }, "geometry": { "type": "Point", "coordinates": [ 2.330507, 48.877751 ] } },
{ "type": "Feature", "properties": { "Name": "Ecole élémentaire publique", "Lat": 48.864839, "Long": 2.364321, "Distance": 1450.0, "Category": "Elementary School", "Company": "Netvibes", "City": "Paris" }, "geometry": { "type": "Point", "coordinates": [ 2.364321, 48.864839 ] } },
{ "type": "Feature", "properties": { "Name": "Ecole Elémentaire et Maternelle Publique", "Lat": 48.880927, "Long": 2.333552, "Distance": 1478.0, "Category": "Elementary School", "Company": "Netvibes", "City": "Paris" }, "geometry": { "type": "Point", "coordinates": [ 2.333552, 48.880927 ] } },
{ "type": "Feature", "properties": { "Name": "Ifactt", "Lat": 48.876119, "Long": 2.327882, "Distance": 1495.0, "Category": "Elementary School", "Company": "Netvibes", "City": "Paris" }, "geometry": { "type": "Point", "coordinates": [ 2.327882, 48.876119 ] } },
{ "type": "Feature", "properties": { "Name": "École Primaire Publique Foyatier", "Lat": 48.884879, "Long": 2.342459, "Distance": 1593.0, "Category": "Elementary School", "Company": "Netvibes", "City": "Paris" }, "geometry": { "type": "Point", "coordinates": [ 2.342459, 48.884879 ] } },
{ "type": "Feature", "properties": { "Name": "Ecole Maternelle Mairie de Paris", "Lat": 48.877285, "Long": 2.366196, "Distance": 1597.0, "Category": "Elementary School", "Company": "Netvibes", "City": "Paris" }, "geometry": { "type": "Point", "coordinates": [ 2.366196, 48.877285 ] } },
{ "type": "Feature", "properties": { "Name": "Ecole Polyvalente", "Lat": 48.884935, "Long": 2.351819, "Distance": 1614.0, "Category": "Elementary School", "Company": "Netvibes", "City": "Paris" }, "geometry": { "type": "Point", "coordinates": [ 2.351819, 48.884935 ] } },
{ "type": "Feature", "properties": { "Name": "St Alban's Catholic Primary School", "Lat": 52.198221, "Long": 0.127154, "Distance": 248.0, "Category": "Elementary School", "Company": "Moviestorm", "City": "Cambridge" }, "geometry": { "type": "Point", "coordinates": [ 0.127154, 52.198221 ] } },
{ "type": "Feature", "properties": { "Name": "St Paul's Primary School", "Lat": 52.196493, "Long": 0.126909, "Distance": 260.0, "Category": "Elementary School", "Company": "Moviestorm", "City": "Cambridge" }, "geometry": { "type": "Point", "coordinates": [ 0.126909, 52.196493 ] } },
{ "type": "Feature", "properties": { "Name": "St Matthew's Primary School", "Lat": 52.204323, "Long": 0.134679, "Distance": 810.0, "Category": "Elementary School", "Company": "Moviestorm", "City": "Cambridge" }, "geometry": { "type": "Point", "coordinates": [ 0.134679, 52.204323 ] } },
{ "type": "Feature", "properties": { "Name": "St Matthew's Primary School", "Lat": 52.204484, "Long": 0.134687, "Distance": 834.0, "Category": "Elementary School", "Company": "Moviestorm", "City": "Cambridge" }, "geometry": { "type": "Point", "coordinates": [ 0.134687, 52.204484 ] } },
{ "type": "Feature", "properties": { "Name": "Park Street C of E Primary School", "Lat": 52.209955, "Long": 0.119918, "Distance": 1573.0, "Category": "Elementary School", "Company": "Moviestorm", "City": "Cambridge" }, "geometry": { "type": "Point", "coordinates": [ 0.119918, 52.209955 ] } },
{ "type": "Feature", "properties": { "Name": "Morley Memorial Primary School", "Lat": 52.186523, "Long": 0.144611, "Distance": 1596.0, "Category": "Elementary School", "Company": "Moviestorm", "City": "Cambridge" }, "geometry": { "type": "Point", "coordinates": [ 0.144611, 52.186523 ] } },
{ "type": "Feature", "properties": { "Name": "Ridgefield Primary School", "Lat": 52.193209, "Long": 0.153337, "Distance": 1620.0, "Category": "Elementary School", "Company": "Moviestorm", "City": "Cambridge" }, "geometry": { "type": "Point", "coordinates": [ 0.153337, 52.193209 ] } },
{ "type": "Feature", "properties": { "Name": "St Philips C of E Primary School", "Lat": 52.200703, "Long": 0.154127, "Distance": 1635.0, "Category": "Elementary School", "Company": "Moviestorm", "City": "Cambridge" }, "geometry": { "type": "Point", "coordinates": [ 0.154127, 52.200703 ] } },
{ "type": "Feature", "properties": { "Name": "Abbey Meadows School", "Lat": 52.208216, "Long": 0.160776, "Distance": 2377.0, "Category": "Elementary School", "Company": "Moviestorm", "City": "Cambridge" }, "geometry": { "type": "Point", "coordinates": [ 0.160776, 52.208216 ] } },
{ "type": "Feature", "properties": { "Name": "Milton Road School", "Lat": 52.218974, "Long": 0.126578, "Distance": 2399.0, "Category": "Elementary School", "Company": "Moviestorm", "City": "Cambridge" }, "geometry": { "type": "Point", "coordinates": [ 0.126578, 52.218974 ] } },
{ "type": "Feature", "properties": { "Name": "Fawcett Primary School", "Lat": 52.177028, "Long": 0.118274, "Distance": 2410.0, "Category": "Elementary School", "Company": "Moviestorm", "City": "Cambridge" }, "geometry": { "type": "Point", "coordinates": [ 0.118274, 52.177028 ] } },
{ "type": "Feature", "properties": { "Name": "Queen Edith Community Primary School", "Lat": 52.181189, "Long": 0.154818, "Distance": 2424.0, "Category": "Elementary School", "Company": "Moviestorm", "City": "Cambridge" }, "geometry": { "type": "Point", "coordinates": [ 0.154818, 52.181189 ] } },
{ "type": "Feature", "properties": { "Name": "St Paul's C of E Primary School", "Lat": 52.196655, "Long": 0.126917, "Distance": 265.0, "Category": "Elementary School", "Company": "Moviestorm", "City": "Cambridge" }, "geometry": { "type": "Point", "coordinates": [ 0.126917, 52.196655 ] } },
{ "type": "Feature", "properties": { "Name": "Newnham Croft Primary School", "Lat": 52.195023, "Long": 0.111794, "Distance": 1308.0, "Category": "Elementary School", "Company": "Moviestorm", "City": "Cambridge" }, "geometry": { "type": "Point", "coordinates": [ 0.111794, 52.195023 ] } },
{ "type": "Feature", "properties": { "Name": "Stepping Stones Learning Academy", "Lat": 33.664787, "Long": -117.867652, "Distance": 1525.0, "Category": "Elementary School", "Company": "Kareo", "City": "Irvine" }, "geometry": { "type": "Point", "coordinates": [ -117.867652, 33.664787 ] } },
{ "type": "Feature", "properties": { "Name": "Irvine Public School Foundation", "Lat": 33.678049, "Long": -117.859797, "Distance": 205.0, "Category": "Elementary School", "Company": "Kareo", "City": "Irvine" }, "geometry": { "type": "Point", "coordinates": [ -117.859797, 33.678049 ] } },
{ "type": "Feature", "properties": { "Name": "Learning Innovation", "Lat": 33.670192, "Long": -117.859398, "Distance": 697.0, "Category": "Elementary School", "Company": "Kareo", "City": "Irvine" }, "geometry": { "type": "Point", "coordinates": [ -117.859398, 33.670192 ] } },
{ "type": "Feature", "properties": { "Name": "St Anne School", "Lat": 33.670779, "Long": -117.854532, "Distance": 738.0, "Category": "Elementary School", "Company": "Kareo", "City": "Irvine" }, "geometry": { "type": "Point", "coordinates": [ -117.854532, 33.670779 ] } },
{ "type": "Feature", "properties": { "Name": "Academic Guidance Services", "Lat": 33.690869, "Long": -117.857587, "Distance": 1606.0, "Category": "Elementary School", "Company": "Kareo", "City": "Irvine" }, "geometry": { "type": "Point", "coordinates": [ -117.857587, 33.690869 ] } },
{ "type": "Feature", "properties": { "Name": "Republic Ems Academy", "Lat": 33.688353, "Long": -117.879096, "Distance": 2304.0, "Category": "Elementary School", "Company": "Kareo", "City": "Irvine" }, "geometry": { "type": "Point", "coordinates": [ -117.879096, 33.688353 ] } },
{ "type": "Feature", "properties": { "Name": "Ps 343", "Lat": 40.708647, "Long": -74.002047, "Distance": 977.0, "Category": "Elementary School", "Company": "SecondMarket", "City": "New York" }, "geometry": { "type": "Point", "coordinates": [ -74.002047, 40.708647 ] } },
{ "type": "Feature", "properties": { "Name": "Ps 1 Alfred E Smith", "Lat": 40.712599, "Long": -73.997533, "Distance": 1519.0, "Category": "Elementary School", "Company": "SecondMarket", "City": "New York" }, "geometry": { "type": "Point", "coordinates": [ -73.997533, 40.712599 ] } },
{ "type": "Feature", "properties": { "Name": "St Joseph School", "Lat": 40.7116, "Long": -73.996578, "Distance": 1520.0, "Category": "Elementary School", "Company": "SecondMarket", "City": "New York" }, "geometry": { "type": "Point", "coordinates": [ -73.996578, 40.7116 ] } },
{ "type": "Feature", "properties": { "Name": "AltSchool Brooklyn Heights", "Lat": 40.695109, "Long": -73.99619, "Distance": 1818.0, "Category": "Elementary School", "Company": "SecondMarket", "City": "New York" }, "geometry": { "type": "Point", "coordinates": [ -73.99619, 40.695109 ] } },
{ "type": "Feature", "properties": { "Name": "Creator's Voice Childrens Center", "Lat": 40.71915, "Long": -73.998578, "Distance": 1945.0, "Category": "Elementary School", "Company": "SecondMarket", "City": "New York" }, "geometry": { "type": "Point", "coordinates": [ -73.998578, 40.71915 ] } },
{ "type": "Feature", "properties": { "Name": "The Sterling School", "Lat": 40.690331, "Long": -73.995434, "Distance": 2225.0, "Category": "Elementary School", "Company": "SecondMarket", "City": "New York" }, "geometry": { "type": "Point", "coordinates": [ -73.995434, 40.690331 ] } },
{ "type": "Feature", "properties": { "Name": "Cornelia F Bradford Elementary", "Lat": 40.714723, "Long": -74.038209, "Distance": 2378.0, "Category": "Elementary School", "Company": "SecondMarket", "City": "New York" }, "geometry": { "type": "Point", "coordinates": [ -74.038209, 40.714723 ] } },
{ "type": "Feature", "properties": { "Name": "Manhattan Charter School II", "Lat": 40.713605, "Long": -73.986269, "Distance": 2406.0, "Category": "Elementary School", "Company": "SecondMarket", "City": "New York" }, "geometry": { "type": "Point", "coordinates": [ -73.986269, 40.713605 ] } },
{ "type": "Feature", "properties": { "Name": "Platform Learning", "Lat": 40.705326, "Long": -74.011123, "Distance": 143.0, "Category": "Elementary School", "Company": "SecondMarket", "City": "New York" }, "geometry": { "type": "Point", "coordinates": [ -74.011123, 40.705326 ] } },
{ "type": "Feature", "properties": { "Name": "Gay Lesbian and Straight Education Network", "Lat": 40.703846, "Long": -74.011981, "Distance": 190.0, "Category": "Elementary School", "Company": "SecondMarket", "City": "New York" }, "geometry": { "type": "Point", "coordinates": [ -74.011981, 40.703846 ] } },
{ "type": "Feature", "properties": { "Name": "Siren Films", "Lat": 40.706415, "Long": -74.01073, "Distance": 206.0, "Category": "Elementary School", "Company": "SecondMarket", "City": "New York" }, "geometry": { "type": "Point", "coordinates": [ -74.01073, 40.706415 ] } },
{ "type": "Feature", "properties": { "Name": "NYC Board Of Education", "Lat": 40.709229, "Long": -74.01237, "Distance": 422.0, "Category": "Elementary School", "Company": "SecondMarket", "City": "New York" }, "geometry": { "type": "Point", "coordinates": [ -74.01237, 40.709229 ] } },
{ "type": "Feature", "properties": { "Name": "Contrarian Research Report", "Lat": 40.708823, "Long": -74.009429, "Distance": 472.0, "Category": "Elementary School", "Company": "SecondMarket", "City": "New York" }, "geometry": { "type": "Point", "coordinates": [ -74.009429, 40.708823 ] } },
{ "type": "Feature", "properties": { "Name": "The Hidden Asset Report", "Lat": 40.708823, "Long": -74.009429, "Distance": 472.0, "Category": "Elementary School", "Company": "SecondMarket", "City": "New York" }, "geometry": { "type": "Point", "coordinates": [ -74.009429, 40.708823 ] } },
{ "type": "Feature", "properties": { "Name": "Merger Insight Research Services", "Lat": 40.708826, "Long": -74.009342, "Distance": 477.0, "Category": "Elementary School", "Company": "SecondMarket", "City": "New York" }, "geometry": { "type": "Point", "coordinates": [ -74.009342, 40.708826 ] } },
{ "type": "Feature", "properties": { "Name": "84 William Street Associate", "Lat": 40.708007, "Long": -74.007739, "Distance": 514.0, "Category": "Elementary School", "Company": "SecondMarket", "City": "New York" }, "geometry": { "type": "Point", "coordinates": [ -74.007739, 40.708007 ] } },
{ "type": "Feature", "properties": { "Name": "Academy of American Poets", "Lat": 40.707743, "Long": -74.00751, "Distance": 515.0, "Category": "Elementary School", "Company": "SecondMarket", "City": "New York" }, "geometry": { "type": "Point", "coordinates": [ -74.00751, 40.707743 ] } },
{ "type": "Feature", "properties": { "Name": "American Forum For Global Education", "Lat": 40.70471, "Long": -74.006037, "Distance": 577.0, "Category": "Elementary School", "Company": "SecondMarket", "City": "New York" }, "geometry": { "type": "Point", "coordinates": [ -74.006037, 40.70471 ] } },
{ "type": "Feature", "properties": { "Name": "Excel Career Training School", "Lat": 40.70912, "Long": -74.006474, "Distance": 673.0, "Category": "Elementary School", "Company": "SecondMarket", "City": "New York" }, "geometry": { "type": "Point", "coordinates": [ -74.006474, 40.70912 ] } },
{ "type": "Feature", "properties": { "Name": "Beekman Towers High School", "Lat": 40.710922, "Long": -74.005629, "Distance": 859.0, "Category": "Elementary School", "Company": "SecondMarket", "City": "New York" }, "geometry": { "type": "Point", "coordinates": [ -74.005629, 40.710922 ] } },
{ "type": "Feature", "properties": { "Name": "Spruce St School P", "Lat": 40.710925, "Long": -74.005541, "Distance": 864.0, "Category": "Elementary School", "Company": "SecondMarket", "City": "New York" }, "geometry": { "type": "Point", "coordinates": [ -74.005541, 40.710925 ] } },
{ "type": "Feature", "properties": { "Name": "Peck Slip School", "Lat": 40.708647, "Long": -74.002047, "Distance": 975.0, "Category": "Elementary School", "Company": "SecondMarket", "City": "New York" }, "geometry": { "type": "Point", "coordinates": [ -74.002047, 40.708647 ] } },
{ "type": "Feature", "properties": { "Name": "Spruce Street School PS 397 Parent- Teacher Association", "Lat": 40.71346, "Long": -74.005511, "Distance": 1083.0, "Category": "Elementary School", "Company": "SecondMarket", "City": "New York" }, "geometry": { "type": "Point", "coordinates": [ -74.005511, 40.71346 ] } },
{ "type": "Feature", "properties": { "Name": "Manhattan Youth Downtown Community Center", "Lat": 40.716508, "Long": -74.012441, "Distance": 1230.0, "Category": "Elementary School", "Company": "SecondMarket", "City": "New York" }, "geometry": { "type": "Point", "coordinates": [ -74.012441, 40.716508 ] } },
{ "type": "Feature", "properties": { "Name": "Education Department of,Region 9, Schools, Intermediate & Junior High Schools, Riis Upper School", "Lat": 40.710355, "Long": -73.996747, "Distance": 1460.0, "Category": "Elementary School", "Company": "SecondMarket", "City": "New York" }, "geometry": { "type": "Point", "coordinates": [ -73.996747, 40.710355 ] } },
{ "type": "Feature", "properties": { "Name": "Public School 1", "Lat": 40.712601, "Long": -73.997446, "Distance": 1520.0, "Category": "Elementary School", "Company": "SecondMarket", "City": "New York" }, "geometry": { "type": "Point", "coordinates": [ -73.997446, 40.712601 ] } },
{ "type": "Feature", "properties": { "Name": "Great Oaks Charter School", "Lat": 40.7116, "Long": -73.996578, "Distance": 1530.0, "Category": "Elementary School", "Company": "SecondMarket", "City": "New York" }, "geometry": { "type": "Point", "coordinates": [ -73.996578, 40.7116 ] } },
{ "type": "Feature", "properties": { "Name": "Manhattan Institute of Management", "Lat": 40.719134, "Long": -74.009097, "Distance": 1553.0, "Category": "Elementary School", "Company": "SecondMarket", "City": "New York" }, "geometry": { "type": "Point", "coordinates": [ -74.009097, 40.719134 ] } },
{ "type": "Feature", "properties": { "Name": "United Nations International School", "Lat": 40.717971, "Long": -74.004249, "Distance": 1568.0, "Category": "Elementary School", "Company": "SecondMarket", "City": "New York" }, "geometry": { "type": "Point", "coordinates": [ -74.004249, 40.717971 ] } },
{ "type": "Feature", "properties": { "Name": "The Robert Fulton School", "Lat": 40.700284, "Long": -73.994256, "Distance": 1665.0, "Category": "Elementary School", "Company": "SecondMarket", "City": "New York" }, "geometry": { "type": "Point", "coordinates": [ -73.994256, 40.700284 ] } },
{ "type": "Feature", "properties": { "Name": "M 124", "Lat": 40.714324, "Long": -73.99555, "Distance": 1758.0, "Category": "Elementary School", "Company": "SecondMarket", "City": "New York" }, "geometry": { "type": "Point", "coordinates": [ -73.99555, 40.714324 ] } },
{ "type": "Feature", "properties": { "Name": "Public School 8 Elementary", "Lat": 40.700756, "Long": -73.992791, "Distance": 1765.0, "Category": "Elementary School", "Company": "SecondMarket", "City": "New York" }, "geometry": { "type": "Point", "coordinates": [ -73.992791, 40.700756 ] } },
{ "type": "Feature", "properties": { "Name": "New York City Board Education", "Lat": 40.716289, "Long": -73.992703, "Distance": 2079.0, "Category": "Elementary School", "Company": "SecondMarket", "City": "New York" }, "geometry": { "type": "Point", "coordinates": [ -73.992703, 40.716289 ] } },
{ "type": "Feature", "properties": { "Name": "Education Exchange Urban", "Lat": 40.702798, "Long": -73.987068, "Distance": 2189.0, "Category": "Elementary School", "Company": "SecondMarket", "City": "New York" }, "geometry": { "type": "Point", "coordinates": [ -73.987068, 40.702798 ] } },
{ "type": "Feature", "properties": { "Name": "Jersey City Board of Education", "Lat": 40.714725, "Long": -74.038122, "Distance": 2367.0, "Category": "Elementary School", "Company": "SecondMarket", "City": "New York" }, "geometry": { "type": "Point", "coordinates": [ -74.038122, 40.714725 ] } },
{ "type": "Feature", "properties": { "Name": "New York City Department Of Education", "Lat": 40.691745, "Long": -73.99104, "Distance": 2383.0, "Category": "Elementary School", "Company": "SecondMarket", "City": "New York" }, "geometry": { "type": "Point", "coordinates": [ -73.99104, 40.691745 ] } },
{ "type": "Feature", "properties": { "Name": "New York City Board of Education", "Lat": 40.713442, "Long": -73.986306, "Distance": 2404.0, "Category": "Elementary School", "Company": "SecondMarket", "City": "New York" }, "geometry": { "type": "Point", "coordinates": [ -73.986306, 40.713442 ] } },
{ "type": "Feature", "properties": { "Name": "New York City Community School District 1 Region 9 New York", "Lat": 40.713392, "Long": -73.986174, "Distance": 2412.0, "Category": "Elementary School", "Company": "SecondMarket", "City": "New York" }, "geometry": { "type": "Point", "coordinates": [ -73.986174, 40.713392 ] } },
{ "type": "Feature", "properties": { "Name": "Public School 29", "Lat": 40.686926, "Long": -73.997743, "Distance": 2417.0, "Category": "Elementary School", "Company": "SecondMarket", "City": "New York" }, "geometry": { "type": "Point", "coordinates": [ -73.997743, 40.686926 ] } },
{ "type": "Feature", "properties": { "Name": "Fantis A Greek Orthodox Parochial School of St Constantine", "Lat": 40.69028, "Long": -73.991375, "Distance": 2470.0, "Category": "Elementary School", "Company": "SecondMarket", "City": "New York" }, "geometry": { "type": "Point", "coordinates": [ -73.991375, 40.69028 ] } },
{ "type": "Feature", "properties": { "Name": "Teleguard", "Lat": 40.691562, "Long": -73.989812, "Distance": 2477.0, "Category": "Elementary School", "Company": "SecondMarket", "City": "New York" }, "geometry": { "type": "Point", "coordinates": [ -73.989812, 40.691562 ] } },
{ "type": "Feature", "properties": { "Name": "Ps 234 Independence School", "Lat": 40.716155, "Long": -74.01151, "Distance": 1208.0, "Category": "Elementary School", "Company": "SecondMarket", "City": "New York" }, "geometry": { "type": "Point", "coordinates": [ -74.01151, 40.716155 ] } },
{ "type": "Feature", "properties": { "Name": "Ps 124 Yung Wing School", "Lat": 40.714435, "Long": -73.995467, "Distance": 1747.0, "Category": "Elementary School", "Company": "SecondMarket", "City": "New York" }, "geometry": { "type": "Point", "coordinates": [ -73.995467, 40.714435 ] } },
{ "type": "Feature", "properties": { "Name": "Polaris At Ebert Elementary School", "Lat": 39.749779, "Long": -104.982149, "Distance": 851.0, "Category": "Elementary School", "Company": "Stratavia", "City": "Denver" }, "geometry": { "type": "Point", "coordinates": [ -104.982149, 39.749779 ] } },
{ "type": "Feature", "properties": { "Name": "University Prep - Arapahoe St", "Lat": 39.739871, "Long": -104.980711, "Distance": 1137.0, "Category": "Elementary School", "Company": "Stratavia", "City": "Denver" }, "geometry": { "type": "Point", "coordinates": [ -104.980711, 39.739871 ] } },
{ "type": "Feature", "properties": { "Name": "Greenlee Elementary School", "Lat": 39.734539, "Long": -105.001274, "Distance": 1558.0, "Category": "Elementary School", "Company": "Stratavia", "City": "Denver" }, "geometry": { "type": "Point", "coordinates": [ -105.001274, 39.734539 ] } },
{ "type": "Feature", "properties": { "Name": "Whittier Elementary School", "Lat": 39.752798, "Long": -104.972937, "Distance": 1729.0, "Category": "Elementary School", "Company": "Stratavia", "City": "Denver" }, "geometry": { "type": "Point", "coordinates": [ -104.972937, 39.752798 ] } },
{ "type": "Feature", "properties": { "Name": "Gilpin Elementary School", "Lat": 39.758328, "Long": -104.976004, "Distance": 1854.0, "Category": "Elementary School", "Company": "Stratavia", "City": "Denver" }, "geometry": { "type": "Point", "coordinates": [ -104.976004, 39.758328 ] } },
{ "type": "Feature", "properties": { "Name": "Pencom International", "Lat": 39.744742, "Long": -104.990663, "Distance": 175.0, "Category": "Elementary School", "Company": "Stratavia", "City": "Denver" }, "geometry": { "type": "Point", "coordinates": [ -104.990663, 39.744742 ] } },
{ "type": "Feature", "properties": { "Name": "Roots Elementary", "Lat": 39.750113, "Long": -104.9975, "Distance": 689.0, "Category": "Elementary School", "Company": "Stratavia", "City": "Denver" }, "geometry": { "type": "Point", "coordinates": [ -104.9975, 39.750113 ] } },
{ "type": "Feature", "properties": { "Name": "Colorado State Government Occupational and Professional Licenses", "Lat": 39.740455, "Long": -104.98524, "Distance": 820.0, "Category": "Elementary School", "Company": "Stratavia", "City": "Denver" }, "geometry": { "type": "Point", "coordinates": [ -104.98524, 39.740455 ] } },
{ "type": "Feature", "properties": { "Name": "Ebert Elementary School", "Lat": 39.749779, "Long": -104.982149, "Distance": 862.0, "Category": "Elementary School", "Company": "Stratavia", "City": "Denver" }, "geometry": { "type": "Point", "coordinates": [ -104.982149, 39.749779 ] } },
{ "type": "Feature", "properties": { "Name": "Polaris At Ebert", "Lat": 39.749779, "Long": -104.982149, "Distance": 862.0, "Category": "Elementary School", "Company": "Stratavia", "City": "Denver" }, "geometry": { "type": "Point", "coordinates": [ -104.982149, 39.749779 ] } },
{ "type": "Feature", "properties": { "Name": "Orchard Valley Learning Center", "Lat": 39.75259, "Long": -104.998682, "Distance": 951.0, "Category": "Elementary School", "Company": "Stratavia", "City": "Denver" }, "geometry": { "type": "Point", "coordinates": [ -104.998682, 39.75259 ] } },
{ "type": "Feature", "properties": { "Name": "Colorado Classified School", "Lat": 39.739005, "Long": -104.999024, "Distance": 1050.0, "Category": "Elementary School", "Company": "Stratavia", "City": "Denver" }, "geometry": { "type": "Point", "coordinates": [ -104.999024, 39.739005 ] } },
{ "type": "Feature", "properties": { "Name": "Peer Assistance", "Lat": 39.741072, "Long": -104.974992, "Distance": 1497.0, "Category": "Elementary School", "Company": "Stratavia", "City": "Denver" }, "geometry": { "type": "Point", "coordinates": [ -104.974992, 39.741072 ] } },
{ "type": "Feature", "properties": { "Name": "Life Skills Center", "Lat": 39.732229, "Long": -104.991348, "Distance": 1560.0, "Category": "Elementary School", "Company": "Stratavia", "City": "Denver" }, "geometry": { "type": "Point", "coordinates": [ -104.991348, 39.732229 ] } },
{ "type": "Feature", "properties": { "Name": "Boettcher School", "Lat": 39.746101, "Long": -104.972372, "Distance": 1605.0, "Category": "Elementary School", "Company": "Stratavia", "City": "Denver" }, "geometry": { "type": "Point", "coordinates": [ -104.972372, 39.746101 ] } },
{ "type": "Feature", "properties": { "Name": "Colorado High School-Denver", "Lat": 39.734152, "Long": -105.005527, "Distance": 1822.0, "Category": "Elementary School", "Company": "Stratavia", "City": "Denver" }, "geometry": { "type": "Point", "coordinates": [ -105.005527, 39.734152 ] } },
{ "type": "Feature", "properties": { "Name": "Adopt-A-School", "Lat": 39.730774, "Long": -104.983318, "Distance": 1847.0, "Category": "Elementary School", "Company": "Stratavia", "City": "Denver" }, "geometry": { "type": "Point", "coordinates": [ -104.983318, 39.730774 ] } },
{ "type": "Feature", "properties": { "Name": "Gilpin Montessori Public School", "Lat": 39.758274, "Long": -104.976163, "Distance": 1849.0, "Category": "Elementary School", "Company": "Stratavia", "City": "Denver" }, "geometry": { "type": "Point", "coordinates": [ -104.976163, 39.758274 ] } },
{ "type": "Feature", "properties": { "Name": "Tubman Hilliard Global Academy", "Lat": 39.759938, "Long": -104.977894, "Distance": 1894.0, "Category": "Elementary School", "Company": "Stratavia", "City": "Denver" }, "geometry": { "type": "Point", "coordinates": [ -104.977894, 39.759938 ] } },
{ "type": "Feature", "properties": { "Name": "One Colorado Education Fund", "Lat": 39.739761, "Long": -104.97039, "Distance": 1916.0, "Category": "Elementary School", "Company": "Stratavia", "City": "Denver" }, "geometry": { "type": "Point", "coordinates": [ -104.97039, 39.739761 ] } },
{ "type": "Feature", "properties": { "Name": "School District 1 In The City", "Lat": 39.728838, "Long": -104.983301, "Distance": 2050.0, "Category": "Elementary School", "Company": "Stratavia", "City": "Denver" }, "geometry": { "type": "Point", "coordinates": [ -104.983301, 39.728838 ] } },
{ "type": "Feature", "properties": { "Name": "Wyman Elementary School", "Lat": 39.742496, "Long": -104.965496, "Distance": 2232.0, "Category": "Elementary School", "Company": "Stratavia", "City": "Denver" }, "geometry": { "type": "Point", "coordinates": [ -104.965496, 39.742496 ] } },
{ "type": "Feature", "properties": { "Name": "Baker Middle School", "Lat": 39.725425, "Long": -104.99439, "Distance": 2333.0, "Category": "Elementary School", "Company": "Stratavia", "City": "Denver" }, "geometry": { "type": "Point", "coordinates": [ -104.99439, 39.725425 ] } },
{ "type": "Feature", "properties": { "Name": "Poly Addiction Centers of Colorado", "Lat": 39.754639, "Long": -105.017444, "Distance": 2430.0, "Category": "Elementary School", "Company": "Stratavia", "City": "Denver" },